[
  {
    "name": "Akureyri International Airport",
    "iata_code": "AEY",
    "icao_code": "BIAR",
    "type": "large_airport",
    "city": "Akureyri",
    "country_code": "IS",
    "country": "IS",
    "latitude": 65.656573,
    "longitude": -18.072018,
    "location": {
      "type": "Point",
      "coordinates": [
        -18.072018,
        65.656573
      ]
    },
    "aliases": [],
    "timezone": "Europe/Paris",
    "is_active": true
  },
  {
    "name": "Bildudalur Airport",
    "iata_code": "BIU",
    "icao_code": "BIBD",
    "type": "small_airport",
    "city": "Bildudalur",
    "country_code": "IS",
    "country": "IS",
    "latitude": 65.641296,
    "longitude": -23.5462,
    "location": {
      "type": "Point",
      "coordinates": [
        -23.5462,
        65.641296
      ]
    },
    "aliases": [],
    "timezone": "Europe/Paris",
    "is_active": true
  },
  {
    "name": "Borgarfjörður eystri Airport",
    "iata_code": "BGJ",
    "icao_code": "BIBF",
    "type": "small_airport",
    "city": "Borgarfjörður eystri",
    "country_code": "IS",
    "country": "IS",
    "latitude": 65.516769,
    "longitude": -13.81578,
    "location": {
      "type": "Point",
      "coordinates": [
        -13.81578,
        65.516769
      ]
    },
    "aliases": [],
    "timezone": "Europe/Paris",
    "is_active": true
  },
  {
    "name": "Bakkafjörður Airport",
    "iata_code": "BJD",
    "icao_code": "BIBK",
    "type": "small_airport",
    "city": "Bakkafjörður",
    "country_code": "IS",
    "country": "IS",
    "latitude": 66.02189636230469,
    "longitude": -14.824399948120117,
    "location": {
      "type": "Point",
      "coordinates": [
        -14.824399948120117,
        66.02189636230469
      ]
    },
    "aliases": [],
    "timezone": "Europe/Paris",
    "is_active": true
  },
  {
    "name": "Blönduós Airport",
    "iata_code": "BLO",
    "icao_code": "BIBL",
    "type": "small_airport",
    "city": "Blönduós",
    "country_code": "IS",
    "country": "IS",
    "latitude": 65.644997,
    "longitude": -20.2875,
    "location": {
      "type": "Point",
      "coordinates": [
        -20.2875,
        65.644997
      ]
    },
    "aliases": [],
    "timezone": "Europe/Paris",
    "is_active": true
  },
  {
    "name": "Breiðdalsvík Airport",
    "iata_code": "BXV",
    "icao_code": "BIBV",
    "type": "small_airport",
    "city": "Breiðdalsvík",
    "country_code": "IS",
    "country": "IS",
    "latitude": 64.790037,
    "longitude": -14.043927,
    "location": {
      "type": "Point",
      "coordinates": [
        -14.043927,
        64.790037
      ]
    },
    "aliases": [],
    "timezone": "Europe/Paris",
    "is_active": true
  },
  {
    "name": "Djúpivogur Airport",
    "iata_code": "DJU",
    "icao_code": "BIDV",
    "type": "small_airport",
    "city": "Djúpivogur",
    "country_code": "IS",
    "country": "IS",
    "latitude": 64.642372,
    "longitude": -14.277297,
    "location": {
      "type": "Point",
      "coordinates": [
        -14.277297,
        64.642372
      ]
    },
    "aliases": [],
    "timezone": "Europe/Paris",
    "is_active": true
  },
  {
    "name": "Egilsstaðir Airport",
    "iata_code": "EGS",
    "icao_code": "BIEG",
    "type": "medium_airport",
    "city": "Egilsstaðir",
    "country_code": "IS",
    "country": "IS",
    "latitude": 65.2833023071289,
    "longitude": -14.401399612426758,
    "location": {
      "type": "Point",
      "coordinates": [
        -14.401399612426758,
        65.2833023071289
      ]
    },
    "aliases": [],
    "timezone": "Europe/Paris",
    "is_active": true
  },
  {
    "name": "Fáskrúðsfjörður Airport",
    "iata_code": "FAS",
    "icao_code": "BIFF",
    "type": "small_airport",
    "city": "Fáskrúðsfjörður",
    "country_code": "IS",
    "country": "IS",
    "latitude": 64.931456,
    "longitude": -14.047957,
    "location": {
      "type": "Point",
      "coordinates": [
        -14.047957,
        64.931456
      ]
    },
    "aliases": [
      "Faskrudsfjordur"
    ],
    "timezone": "Europe/Paris",
    "is_active": true
  },
  {
    "name": "Fagurhólsmýri Airport",
    "iata_code": "FAG",
    "icao_code": "BIFM",
    "type": "small_airport",
    "city": "Fagurhólsmýri",
    "country_code": "IS",
    "country": "IS",
    "latitude": 63.874699,
    "longitude": -16.6411,
    "location": {
      "type": "Point",
      "coordinates": [
        -16.6411,
        63.874699
      ]
    },
    "aliases": [],
    "timezone": "Europe/Paris",
    "is_active": true
  },
  {
    "name": "Grundarfjörður Airport",
    "iata_code": "GUU",
    "icao_code": "BIGF",
    "type": "small_airport",
    "city": "Grundarfjörður",
    "country_code": "IS",
    "country": "IS",
    "latitude": 64.991402,
    "longitude": -23.224701,
    "location": {
      "type": "Point",
      "coordinates": [
        -23.224701,
        64.991402
      ]
    },
    "aliases": [],
    "timezone": "Europe/Paris",
    "is_active": true
  },
  {
    "name": "Gjögur Airport",
    "iata_code": "GJR",
    "icao_code": "BIGJ",
    "type": "small_airport",
    "city": "Gjögur",
    "country_code": "IS",
    "country": "IS",
    "latitude": 65.9953,
    "longitude": -21.3269,
    "location": {
      "type": "Point",
      "coordinates": [
        -21.3269,
        65.9953
      ]
    },
    "aliases": [],
    "timezone": "Europe/Paris",
    "is_active": true
  },
  {
    "name": "Grímsey Airport",
    "iata_code": "GRY",
    "icao_code": "BIGR",
    "type": "medium_airport",
    "city": "Grímsey/Sandvík",
    "country_code": "IS",
    "country": "IS",
    "latitude": 66.5458,
    "longitude": -18.0173,
    "location": {
      "type": "Point",
      "coordinates": [
        -18.0173,
        66.5458
      ]
    },
    "aliases": [
      "Sandvík"
    ],
    "timezone": "Europe/Paris",
    "is_active": true
  },
  {
    "name": "Hólmavík Airport",
    "iata_code": "HVK",
    "icao_code": "BIHK",
    "type": "small_airport",
    "city": "Hólmavík",
    "country_code": "IS",
    "country": "IS",
    "latitude": 65.704697,
    "longitude": -21.6964,
    "location": {
      "type": "Point",
      "coordinates": [
        -21.6964,
        65.704697
      ]
    },
    "aliases": [],
    "timezone": "Europe/Paris",
    "is_active": true
  },
  {
    "name": "Hornafjörður Airport",
    "iata_code": "HFN",
    "icao_code": "BIHN",
    "type": "medium_airport",
    "city": "Höfn",
    "country_code": "IS",
    "country": "IS",
    "latitude": 64.295601,
    "longitude": -15.2272,
    "location": {
      "type": "Point",
      "coordinates": [
        -15.2272,
        64.295601
      ]
    },
    "aliases": [],
    "timezone": "Europe/Paris",
    "is_active": true
  },
  {
    "name": "Holt Airport",
    "iata_code": "FLI",
    "icao_code": "BIHT",
    "type": "small_airport",
    "city": "Flateyri",
    "country_code": "IS",
    "country": "IS",
    "latitude": 66.0141804294,
    "longitude": -23.4416913986,
    "location": {
      "type": "Point",
      "coordinates": [
        -23.4416913986,
        66.0141804294
      ]
    },
    "aliases": [],
    "timezone": "Europe/Paris",
    "is_active": true
  },
  {
    "name": "Húsavík Airport",
    "iata_code": "HZK",
    "icao_code": "BIHU",
    "type": "medium_airport",
    "city": "Húsavík",
    "country_code": "IS",
    "country": "IS",
    "latitude": 65.952301,
    "longitude": -17.426001,
    "location": {
      "type": "Point",
      "coordinates": [
        -17.426001,
        65.952301
      ]
    },
    "aliases": [],
    "timezone": "Europe/Paris",
    "is_active": true
  },
  {
    "name": "Ingjaldssanður Airport",
    "iata_code": "HLO",
    "icao_code": "BIID",
    "type": "small_airport",
    "city": "Onundarfjörður",
    "country_code": "IS",
    "country": "IS",
    "latitude": 66.05000305175781,
    "longitude": -23.69610023498535,
    "location": {
      "type": "Point",
      "coordinates": [
        -23.69610023498535,
        66.05000305175781
      ]
    },
    "aliases": [],
    "timezone": "Europe/Paris",
    "is_active": true
  },
  {
    "name": "Ísafjörður Airport",
    "iata_code": "IFJ",
    "icao_code": "BIIS",
    "type": "medium_airport",
    "city": "Ísafjörður",
    "country_code": "IS",
    "country": "IS",
    "latitude": 66.058098,
    "longitude": -23.1353,
    "location": {
      "type": "Point",
      "coordinates": [
        -23.1353,
        66.058098
      ]
    },
    "aliases": [],
    "timezone": "Europe/Paris",
    "is_active": true
  },
  {
    "name": "Keflavik International Airport",
    "iata_code": "KEF",
    "icao_code": "BIKF",
    "type": "large_airport",
    "city": "Reykjavík",
    "country_code": "IS",
    "country": "IS",
    "latitude": 63.985001,
    "longitude": -22.6056,
    "location": {
      "type": "Point",
      "coordinates": [
        -22.6056,
        63.985001
      ]
    },
    "aliases": [
      "Keflavik Naval Air Station",
      "REK"
    ],
    "timezone": "Europe/Paris",
    "is_active": true
  },
  {
    "name": "Kópasker Airport",
    "iata_code": "OPA",
    "icao_code": "BIKP",
    "type": "small_airport",
    "city": "Kópasker",
    "country_code": "IS",
    "country": "IS",
    "latitude": 66.310799,
    "longitude": -16.4667,
    "location": {
      "type": "Point",
      "coordinates": [
        -16.4667,
        66.310799
      ]
    },
    "aliases": [],
    "timezone": "Europe/Paris",
    "is_active": true
  },
  {
    "name": "Sauðárkrókur Airport",
    "iata_code": "SAK",
    "icao_code": "BIKR",
    "type": "small_airport",
    "city": "Sauðárkrókur",
    "country_code": "IS",
    "country": "IS",
    "latitude": 65.73169708249999,
    "longitude": -19.572799682599996,
    "location": {
      "type": "Point",
      "coordinates": [
        -19.572799682599996,
        65.73169708249999
      ]
    },
    "aliases": [],
    "timezone": "Europe/Paris",
    "is_active": true
  },
  {
    "name": "Norðfjörður Airport",
    "iata_code": "NOR",
    "icao_code": "BINF",
    "type": "small_airport",
    "city": "Norðfjörður",
    "country_code": "IS",
    "country": "IS",
    "latitude": 65.131897,
    "longitude": -13.7464,
    "location": {
      "type": "Point",
      "coordinates": [
        -13.7464,
        65.131897
      ]
    },
    "aliases": [],
    "timezone": "Europe/Paris",
    "is_active": true
  },
  {
    "name": "Ólafsfjörður Airport",
    "iata_code": "OFJ",
    "icao_code": "BIOF",
    "type": "small_airport",
    "city": "Ólafsfjörður",
    "country_code": "IS",
    "country": "IS",
    "latitude": 66.083298,
    "longitude": -18.6667,
    "location": {
      "type": "Point",
      "coordinates": [
        -18.6667,
        66.083298
      ]
    },
    "aliases": [],
    "timezone": "Europe/Paris",
    "is_active": true
  },
  {
    "name": "Patreksfjörður Airport",
    "iata_code": "PFJ",
    "icao_code": "BIPA",
    "type": "small_airport",
    "city": "Patreksfjörður",
    "country_code": "IS",
    "country": "IS",
    "latitude": 65.555801,
    "longitude": -23.965,
    "location": {
      "type": "Point",
      "coordinates": [
        -23.965,
        65.555801
      ]
    },
    "aliases": [],
    "timezone": "Europe/Paris",
    "is_active": true
  },
  {
    "name": "Reykhólar Airport",
    "iata_code": "RHA",
    "icao_code": "BIRE",
    "type": "small_airport",
    "city": "Reykhólar",
    "country_code": "IS",
    "country": "IS",
    "latitude": 65.45262908935547,
    "longitude": -22.20611572265625,
    "location": {
      "type": "Point",
      "coordinates": [
        -22.20611572265625,
        65.45262908935547
      ]
    },
    "aliases": [],
    "timezone": "Europe/Paris",
    "is_active": true
  },
  {
    "name": "Rif Airport",
    "iata_code": "OLI",
    "icao_code": "BIRF",
    "type": "medium_airport",
    "city": "Rif",
    "country_code": "IS",
    "country": "IS",
    "latitude": 64.9114,
    "longitude": -23.823099,
    "location": {
      "type": "Point",
      "coordinates": [
        -23.823099,
        64.9114
      ]
    },
    "aliases": [],
    "timezone": "Europe/Paris",
    "is_active": true
  },
  {
    "name": "Raufarhöfn Airport",
    "iata_code": "RFN",
    "icao_code": "BIRG",
    "type": "small_airport",
    "city": "Raufarhöfn",
    "country_code": "IS",
    "country": "IS",
    "latitude": 66.406403,
    "longitude": -15.9183,
    "location": {
      "type": "Point",
      "coordinates": [
        -15.9183,
        66.406403
      ]
    },
    "aliases": [],
    "timezone": "Europe/Paris",
    "is_active": true
  },
  {
    "name": "Reykjavík Domestic Airport",
    "iata_code": "RKV",
    "icao_code": "BIRK",
    "type": "medium_airport",
    "city": "Reykjavík",
    "country_code": "IS",
    "country": "IS",
    "latitude": 64.128732,
    "longitude": -21.93759,
    "location": {
      "type": "Point",
      "coordinates": [
        -21.93759,
        64.128732
      ]
    },
    "aliases": [
      "REK"
    ],
    "timezone": "Europe/Paris",
    "is_active": true
  },
  {
    "name": "Reykjahlíð Airport",
    "iata_code": "MVA",
    "icao_code": "BIRL",
    "type": "small_airport",
    "city": "Myvatn",
    "country_code": "IS",
    "country": "IS",
    "latitude": 65.6558,
    "longitude": -16.9181,
    "location": {
      "type": "Point",
      "coordinates": [
        -16.9181,
        65.6558
      ]
    },
    "aliases": [],
    "timezone": "Europe/Paris",
    "is_active": true
  },
  {
    "name": "Siglufjörður Airport",
    "iata_code": "SIJ",
    "icao_code": "BISI",
    "type": "medium_airport",
    "city": "Siglufjörður",
    "country_code": "IS",
    "country": "IS",
    "latitude": 66.137847,
    "longitude": -18.908157,
    "location": {
      "type": "Point",
      "coordinates": [
        -18.908157,
        66.137847
      ]
    },
    "aliases": [],
    "timezone": "Europe/Paris",
    "is_active": true
  },
  {
    "name": "Stykkishólmur Airport",
    "iata_code": "SYK",
    "icao_code": "BIST",
    "type": "small_airport",
    "city": "Stykkishólmur",
    "country_code": "IS",
    "country": "IS",
    "latitude": 65.058851,
    "longitude": -22.764616,
    "location": {
      "type": "Point",
      "coordinates": [
        -22.764616,
        65.058851
      ]
    },
    "aliases": [],
    "timezone": "Europe/Paris",
    "is_active": true
  },
  {
    "name": "Þingeyri Airport",
    "iata_code": "TEY",
    "icao_code": "BITE",
    "type": "small_airport",
    "city": "Þingeyri",
    "country_code": "IS",
    "country": "IS",
    "latitude": 65.8703,
    "longitude": -23.559999,
    "location": {
      "type": "Point",
      "coordinates": [
        -23.559999,
        65.8703
      ]
    },
    "aliases": [
      "Thingeyri"
    ],
    "timezone": "Europe/Paris",
    "is_active": true
  },
  {
    "name": "Þórshöfn Airport",
    "iata_code": "THO",
    "icao_code": "BITN",
    "type": "small_airport",
    "city": "Þórshöfn",
    "country_code": "IS",
    "country": "IS",
    "latitude": 66.218498,
    "longitude": -15.3356,
    "location": {
      "type": "Point",
      "coordinates": [
        -15.3356,
        66.218498
      ]
    },
    "aliases": [
      "Thorshofn"
    ],
    "timezone": "Europe/Paris",
    "is_active": true
  },
  {
    "name": "Vestmannaeyjar Airport",
    "iata_code": "VEY",
    "icao_code": "BIVM",
    "type": "medium_airport",
    "city": "Vestmannaeyjar",
    "country_code": "IS",
    "country": "IS",
    "latitude": 63.42430114746094,
    "longitude": -20.278900146484375,
    "location": {
      "type": "Point",
      "coordinates": [
        -20.278900146484375,
        63.42430114746094
      ]
    },
    "aliases": [],
    "timezone": "Europe/Paris",
    "is_active": true
  },
  {
    "name": "Vopnafjörður Airport",
    "iata_code": "VPN",
    "icao_code": "BIVO",
    "type": "small_airport",
    "city": "Vopnafjörður",
    "country_code": "IS",
    "country": "IS",
    "latitude": 65.720596,
    "longitude": -14.8506,
    "location": {
      "type": "Point",
      "coordinates": [
        -14.8506,
        65.720596
      ]
    },
    "aliases": [],
    "timezone": "Europe/Paris",
    "is_active": true
  },
  {
    "name": "Priština Adem Jashari International Airport",
    "iata_code": "PRN",
    "icao_code": "BKPR",
    "type": "large_airport",
    "city": "Prishtina",
    "country_code": "XK",
    "country": "XK",
    "latitude": 42.5728,
    "longitude": 21.035801,
    "location": {
      "type": "Point",
      "coordinates": [
        21.035801,
        42.5728
      ]
    },
    "aliases": [
      "LYPR",
      "Pristina",
      "Slatina Air Base"
    ],
    "timezone": "Europe/Paris",
    "is_active": true
  },
  {
    "name": "Dalnegorsk Airport",
    "iata_code": "DHG",
    "icao_code": "DHG",
    "type": "small_airport",
    "city": "Dalnegorsk",
    "country_code": "RU",
    "country": "RU",
    "latitude": 44.558748,
    "longitude": 135.490005,
    "location": {
      "type": "Point",
      "coordinates": [
        135.490005,
        44.558748
      ]
    },
    "aliases": [],
    "timezone": "Europe/Paris",
    "is_active": true
  },
  {
    "name": "Dalnerechensk Airport",
    "iata_code": "DLR",
    "icao_code": "UHHD",
    "type": "small_airport",
    "city": "Dalnerechensk",
    "country_code": "RU",
    "country": "RU",
    "latitude": 45.877949,
    "longitude": 133.735822,
    "location": {
      "type": "Point",
      "coordinates": [
        133.735822,
        45.877949
      ]
    },
    "aliases": [],
    "timezone": "Europe/Paris",
    "is_active": true
  },
  {
    "name": "Deputatskiy Airport",
    "iata_code": "DPT",
    "icao_code": "UEBD",
    "type": "small_airport",
    "city": "Deputatskiy",
    "country_code": "RU",
    "country": "RU",
    "latitude": 69.392503,
    "longitude": 139.890012,
    "location": {
      "type": "Point",
      "coordinates": [
        139.890012,
        69.392503
      ]
    },
    "aliases": [
      "УЕБД",
      "Deputatsky Airport",
      "Аэропорт Депутатский",
      "Deputy Airport"
    ],
    "timezone": "Europe/Paris",
    "is_active": true
  },
  {
    "name": "Antwerp International Airport (Deurne)",
    "iata_code": "ANR",
    "icao_code": "EBAW",
    "type": "medium_airport",
    "city": "Antwerp",
    "country_code": "BE",
    "country": "Belgium",
    "latitude": 51.190667,
    "longitude": 4.463153,
    "location": {
      "type": "Point",
      "coordinates": [
        4.463153,
        51.190667
      ]
    },
    "aliases": [],
    "timezone": "Europe/Paris",
    "is_active": true
  },
  {
    "name": "Brussels Airport",
    "iata_code": "BRU",
    "icao_code": "EBBR",
    "type": "large_airport",
    "city": "Zaventem",
    "country_code": "BE",
    "country": "Belgium",
    "latitude": 50.901402,
    "longitude": 4.48444,
    "location": {
      "type": "Point",
      "coordinates": [
        4.48444,
        50.901402
      ]
    },
    "aliases": [
      "Brussels National",
      "Zaventem",
      "EBMB"
    ],
    "timezone": "Europe/Paris",
    "is_active": true
  },
  {
    "name": "Brussels South Charleroi Airport",
    "iata_code": "CRL",
    "icao_code": "EBCI",
    "type": "large_airport",
    "city": "Charleroi",
    "country_code": "BE",
    "country": "Belgium",
    "latitude": 50.461963,
    "longitude": 4.459562,
    "location": {
      "type": "Point",
      "coordinates": [
        4.459562,
        50.461963
      ]
    },
    "aliases": [
      "Gosselies Airport"
    ],
    "timezone": "Europe/Paris",
    "is_active": true
  },
  {
    "name": "Flanders International Airport Kortrijk-Wevelgem",
    "iata_code": "KJK",
    "icao_code": "EBKT",
    "type": "medium_airport",
    "city": "Wevelgem",
    "country_code": "BE",
    "country": "Belgium",
    "latitude": 50.818878,
    "longitude": 3.209551,
    "location": {
      "type": "Point",
      "coordinates": [
        3.209551,
        50.818878
      ]
    },
    "aliases": [
      "Kortrijk",
      "Courtrai"
    ],
    "timezone": "Europe/Paris",
    "is_active": true
  },
  {
    "name": "Liège Airport",
    "iata_code": "LGG",
    "icao_code": "EBLG",
    "type": "medium_airport",
    "city": "Grâce-Hollogne",
    "country_code": "BE",
    "country": "Belgium",
    "latitude": 50.638574,
    "longitude": 5.443897,
    "location": {
      "type": "Point",
      "coordinates": [
        5.443897,
        50.638574
      ]
    },
    "aliases": [
      "Bierset"
    ],
    "timezone": "Europe/Paris",
    "is_active": true
  },
  {
    "name": "Ostend-Bruges International Airport",
    "iata_code": "OST",
    "icao_code": "EBOS",
    "type": "large_airport",
    "city": "Oostende",
    "country_code": "BE",
    "country": "Belgium",
    "latitude": 51.1998,
    "longitude": 2.874673,
    "location": {
      "type": "Point",
      "coordinates": [
        2.874673,
        51.1998
      ]
    },
    "aliases": [
      "Ostend-Bruges International Airport"
    ],
    "timezone": "Europe/Paris",
    "is_active": true
  },
  {
    "name": "Oostmalle Airfield",
    "iata_code": "OBL",
    "icao_code": "EBZR",
    "type": "small_airport",
    "city": "Zoersel",
    "country_code": "BE",
    "country": "Belgium",
    "latitude": 51.269092,
    "longitude": 4.762428,
    "location": {
      "type": "Point",
      "coordinates": [
        4.762428,
        51.269092
      ]
    },
    "aliases": [
      "Malle Airfield"
    ],
    "timezone": "Europe/Paris",
    "is_active": true
  },
  {
    "name": "Leipzig–Altenburg Airport",
    "iata_code": "AOC",
    "icao_code": "EDAC",
    "type": "medium_airport",
    "city": "Nobitz",
    "country_code": "DE",
    "country": "Germany",
    "latitude": 50.981945,
    "longitude": 12.506389,
    "location": {
      "type": "Point",
      "coordinates": [
        12.506389,
        50.981945
      ]
    },
    "aliases": [
      "Altenburg-Nobitz"
    ],
    "timezone": "Europe/Paris",
    "is_active": true
  },
  {
    "name": "Heringsdorf Airport",
    "iata_code": "HDF",
    "icao_code": "EDAH",
    "type": "medium_airport",
    "city": "Zirchow",
    "country_code": "DE",
    "country": "Germany",
    "latitude": 53.8787,
    "longitude": 14.1523,
    "location": {
      "type": "Point",
      "coordinates": [
        14.1523,
        53.8787
      ]
    },
    "aliases": [],
    "timezone": "Europe/Paris",
    "is_active": true
  },
  {
    "name": "Riesa-Göhlis Airport",
    "iata_code": "IES",
    "icao_code": "EDAU",
    "type": "small_airport",
    "city": "Riesa",
    "country_code": "DE",
    "country": "Germany",
    "latitude": 51.29361,
    "longitude": 13.356111,
    "location": {
      "type": "Point",
      "coordinates": [
        13.356111,
        51.29361
      ]
    },
    "aliases": [],
    "timezone": "Europe/Paris",
    "is_active": true
  },
  {
    "name": "Müritz Airpark",
    "iata_code": "REB",
    "icao_code": "EDAX",
    "type": "small_airport",
    "city": "Lärz",
    "country_code": "DE",
    "country": "Germany",
    "latitude": 53.306389,
    "longitude": 12.752222,
    "location": {
      "type": "Point",
      "coordinates": [
        12.752222,
        53.306389
      ]
    },
    "aliases": [
      "Mueritz",
      "Rechlin–Lärz Airfield"
    ],
    "timezone": "Europe/Paris",
    "is_active": true
  },
  {
    "name": "Cochstedt Airport",
    "iata_code": "CSO",
    "icao_code": "EDBC",
    "type": "small_airport",
    "city": "Hecklingen",
    "country_code": "DE",
    "country": "Germany",
    "latitude": 51.8564,
    "longitude": 11.4203,
    "location": {
      "type": "Point",
      "coordinates": [
        11.4203,
        51.8564
      ]
    },
    "aliases": [],
    "timezone": "Europe/Paris",
    "is_active": true
  },
  {
    "name": "Stralsund-Barth Airport",
    "iata_code": "BBH",
    "icao_code": "EDBH",
    "type": "small_airport",
    "city": "Barth",
    "country_code": "DE",
    "country": "Germany",
    "latitude": 54.338253,
    "longitude": 12.710515,
    "location": {
      "type": "Point",
      "coordinates": [
        12.710515,
        54.338253
      ]
    },
    "aliases": [
      "Osteseeflughafen Stralsund-Barth"
    ],
    "timezone": "Europe/Paris",
    "is_active": true
  },
  {
    "name": "Neubrandenburg Trollenhagen Airport",
    "iata_code": "FNB",
    "icao_code": "EDBN",
    "type": "medium_airport",
    "city": "Trollenhagen",
    "country_code": "DE",
    "country": "Germany",
    "latitude": 53.6022,
    "longitude": 13.306,
    "location": {
      "type": "Point",
      "coordinates": [
        13.306,
        53.6022
      ]
    },
    "aliases": [
      "ETNU"
    ],
    "timezone": "Europe/Paris",
    "is_active": true
  },
  {
    "name": "Rügen Airport",
    "iata_code": "GTI",
    "icao_code": "EDCG",
    "type": "small_airport",
    "city": "Dreschvitz",
    "country_code": "DE",
    "country": "Germany",
    "latitude": 54.38347,
    "longitude": 13.325542,
    "location": {
      "type": "Point",
      "coordinates": [
        13.325542,
        54.38347
      ]
    },
    "aliases": [
      "Flugplatz Güttin / Rügen",
      "Güttin Airfield",
      "Ostsee-Flug-Rügen",
      "Rugen",
      "Ruegen",
      "Rᵫgen"
    ],
    "timezone": "Europe/Paris",
    "is_active": true
  },
  {
    "name": "Köthen Airport",
    "iata_code": "KOQ",
    "icao_code": "EDCK",
    "type": "small_airport",
    "city": "Köthen (Anhalt)",
    "country_code": "DE",
    "country": "Germany",
    "latitude": 51.723745,
    "longitude": 11.948826,
    "location": {
      "type": "Point",
      "coordinates": [
        11.948826,
        51.723745
      ]
    },
    "aliases": [],
    "timezone": "Europe/Paris",
    "is_active": true
  },
  {
    "name": "Peenemünde Airport",
    "iata_code": "PEF",
    "icao_code": "EDCP",
    "type": "small_airport",
    "city": "Peenemünde",
    "country_code": "DE",
    "country": "Germany",
    "latitude": 54.15778,
    "longitude": 13.774444,
    "location": {
      "type": "Point",
      "coordinates": [
        13.774444,
        54.15778
      ]
    },
    "aliases": [
      "Peenemuende"
    ],
    "timezone": "Europe/Paris",
    "is_active": true
  },
  {
    "name": "Berlin Brandenburg Willy Brandt Airport",
    "iata_code": "BER",
    "icao_code": "EDDB",
    "type": "large_airport",
    "city": "Berlin",
    "country_code": "DE",
    "country": "Germany",
    "latitude": 52.361738,
    "longitude": 13.502341,
    "location": {
      "type": "Point",
      "coordinates": [
        13.502341,
        52.361738
      ]
    },
    "aliases": [],
    "timezone": "Europe/Paris",
    "is_active": true
  },
  {
    "name": "Dresden Airport",
    "iata_code": "DRS",
    "icao_code": "EDDC",
    "type": "large_airport",
    "city": "Dresden",
    "country_code": "DE",
    "country": "Germany",
    "latitude": 51.134123,
    "longitude": 13.767831,
    "location": {
      "type": "Point",
      "coordinates": [
        13.767831,
        51.134123
      ]
    },
    "aliases": [],
    "timezone": "Europe/Paris",
    "is_active": true
  },
  {
    "name": "Erfurt-Weimar Airport",
    "iata_code": "ERF",
    "icao_code": "EDDE",
    "type": "large_airport",
    "city": "Erfurt",
    "country_code": "DE",
    "country": "Germany",
    "latitude": 50.978281,
    "longitude": 10.960713,
    "location": {
      "type": "Point",
      "coordinates": [
        10.960713,
        50.978281
      ]
    },
    "aliases": [
      "Flughafen Erfurt-Weimar"
    ],
    "timezone": "Europe/Paris",
    "is_active": true
  },
  {
    "name": "Frankfurt Airport",
    "iata_code": "FRA",
    "icao_code": "EDDF",
    "type": "large_airport",
    "city": "Frankfurt am Main",
    "country_code": "DE",
    "country": "Germany",
    "latitude": 50.030241,
    "longitude": 8.561096,
    "location": {
      "type": "Point",
      "coordinates": [
        8.561096,
        50.030241
      ]
    },
    "aliases": [
      "EDAF",
      "Frankfurt am Main",
      "Frankfurt Main",
      "Rhein-Main Air Base",
      "Zeppelinheim"
    ],
    "timezone": "Europe/Paris",
    "is_active": true
  },
  {
    "name": "Münster Osnabrück Airport",
    "iata_code": "FMO",
    "icao_code": "EDDG",
    "type": "large_airport",
    "city": "Greven",
    "country_code": "DE",
    "country": "Germany",
    "latitude": 52.133816,
    "longitude": 7.688482,
    "location": {
      "type": "Point",
      "coordinates": [
        7.688482,
        52.133816
      ]
    },
    "aliases": [],
    "timezone": "Europe/Paris",
    "is_active": true
  },
  {
    "name": "Hamburg Helmut Schmidt Airport",
    "iata_code": "HAM",
    "icao_code": "EDDH",
    "type": "large_airport",
    "city": "Hamburg",
    "country_code": "DE",
    "country": "Germany",
    "latitude": 53.630402,
    "longitude": 9.98823,
    "location": {
      "type": "Point",
      "coordinates": [
        9.98823,
        53.630402
      ]
    },
    "aliases": [
      "Hamburg-Fuhlsbüttel Airport"
    ],
    "timezone": "Europe/Paris",
    "is_active": true
  },
  {
    "name": "Cologne Bonn Airport",
    "iata_code": "CGN",
    "icao_code": "EDDK",
    "type": "large_airport",
    "city": "Köln (Cologne)",
    "country_code": "DE",
    "country": "Germany",
    "latitude": 50.865898,
    "longitude": 7.14274,
    "location": {
      "type": "Point",
      "coordinates": [
        7.14274,
        50.865898
      ]
    },
    "aliases": [
      "Köln"
    ],
    "timezone": "Europe/Paris",
    "is_active": true
  },
  {
    "name": "Düsseldorf Airport",
    "iata_code": "DUS",
    "icao_code": "EDDL",
    "type": "large_airport",
    "city": "Düsseldorf",
    "country_code": "DE",
    "country": "Germany",
    "latitude": 51.289501,
    "longitude": 6.76678,
    "location": {
      "type": "Point",
      "coordinates": [
        6.76678,
        51.289501
      ]
    },
    "aliases": [],
    "timezone": "Europe/Paris",
    "is_active": true
  },
  {
    "name": "Munich Airport",
    "iata_code": "MUC",
    "icao_code": "EDDM",
    "type": "large_airport",
    "city": "Munich",
    "country_code": "DE",
    "country": "Germany",
    "latitude": 48.353802,
    "longitude": 11.7861,
    "location": {
      "type": "Point",
      "coordinates": [
        11.7861,
        48.353802
      ]
    },
    "aliases": [
      "Franz Josef Strauss Airport",
      "Flughafen München Franz Josef Strauß"
    ],
    "timezone": "Europe/Paris",
    "is_active": true
  },
  {
    "name": "Nuremberg Airport",
    "iata_code": "NUE",
    "icao_code": "EDDN",
    "type": "large_airport",
    "city": "Nuremberg",
    "country_code": "DE",
    "country": "Germany",
    "latitude": 49.498699,
    "longitude": 11.078056,
    "location": {
      "type": "Point",
      "coordinates": [
        11.078056,
        49.498699
      ]
    },
    "aliases": [
      "Nürnberg"
    ],
    "timezone": "Europe/Paris",
    "is_active": true
  },
  {
    "name": "Leipzig/Halle Airport",
    "iata_code": "LEJ",
    "icao_code": "EDDP",
    "type": "large_airport",
    "city": "Schkeuditz",
    "country_code": "DE",
    "country": "Germany",
    "latitude": 51.420657,
    "longitude": 12.232705,
    "location": {
      "type": "Point",
      "coordinates": [
        12.232705,
        51.420657
      ]
    },
    "aliases": [
      "Schkeuditz Airport"
    ],
    "timezone": "Europe/Paris",
    "is_active": true
  },
  {
    "name": "Saarbrücken Airport",
    "iata_code": "SCN",
    "icao_code": "EDDR",
    "type": "large_airport",
    "city": "Saarbrücken",
    "country_code": "DE",
    "country": "Germany",
    "latitude": 49.217562,
    "longitude": 7.111667,
    "location": {
      "type": "Point",
      "coordinates": [
        7.111667,
        49.217562
      ]
    },
    "aliases": [],
    "timezone": "Europe/Paris",
    "is_active": true
  },
  {
    "name": "Stuttgart Airport",
    "iata_code": "STR",
    "icao_code": "EDDS",
    "type": "large_airport",
    "city": "Stuttgart",
    "country_code": "DE",
    "country": "Germany",
    "latitude": 48.689899,
    "longitude": 9.22196,
    "location": {
      "type": "Point",
      "coordinates": [
        9.22196,
        48.689899
      ]
    },
    "aliases": [],
    "timezone": "Europe/Paris",
    "is_active": true
  },
  {
    "name": "Hannover Airport",
    "iata_code": "HAJ",
    "icao_code": "EDDV",
    "type": "large_airport",
    "city": "Hannover",
    "country_code": "DE",
    "country": "Germany",
    "latitude": 52.461102,
    "longitude": 9.68508,
    "location": {
      "type": "Point",
      "coordinates": [
        9.68508,
        52.461102
      ]
    },
    "aliases": [],
    "timezone": "Europe/Paris",
    "is_active": true
  },
  {
    "name": "Bremen Airport",
    "iata_code": "BRE",
    "icao_code": "EDDW",
    "type": "large_airport",
    "city": "Bremen",
    "country_code": "DE",
    "country": "Germany",
    "latitude": 53.046786,
    "longitude": 8.78932,
    "location": {
      "type": "Point",
      "coordinates": [
        8.78932,
        53.046786
      ]
    },
    "aliases": [],
    "timezone": "Europe/Paris",
    "is_active": true
  },
  {
    "name": "Frankfurt-Hahn Airport",
    "iata_code": "HHN",
    "icao_code": "EDFH",
    "type": "large_airport",
    "city": "Frankfurt am Main (Lautzenhausen)",
    "country_code": "DE",
    "country": "Germany",
    "latitude": 49.946353,
    "longitude": 7.261734,
    "location": {
      "type": "Point",
      "coordinates": [
        7.261734,
        49.946353
      ]
    },
    "aliases": [],
    "timezone": "Europe/Paris",
    "is_active": true
  },
  {
    "name": "Mannheim-City Airport",
    "iata_code": "MHG",
    "icao_code": "EDFM",
    "type": "medium_airport",
    "city": "Mannheim",
    "country_code": "DE",
    "country": "Germany",
    "latitude": 49.473057,
    "longitude": 8.514167,
    "location": {
      "type": "Point",
      "coordinates": [
        8.514167,
        49.473057
      ]
    },
    "aliases": [
      "Mannheim"
    ],
    "timezone": "Europe/Paris",
    "is_active": true
  },
  {
    "name": "Eisenach-Kindel Airport",
    "iata_code": "EIB",
    "icao_code": "EDGE",
    "type": "medium_airport",
    "city": "Hörselberg-Hainich",
    "country_code": "DE",
    "country": "Germany",
    "latitude": 50.991604,
    "longitude": 10.47973,
    "location": {
      "type": "Point",
      "coordinates": [
        10.47973,
        50.991604
      ]
    },
    "aliases": [
      "Flugplatz Eisenach-Kindel"
    ],
    "timezone": "Europe/Paris",
    "is_active": true
  },
  {
    "name": "Siegerland Airport",
    "iata_code": "SGE",
    "icao_code": "EDGS",
    "type": "medium_airport",
    "city": "Burbach",
    "country_code": "DE",
    "country": "Germany",
    "latitude": 50.707699,
    "longitude": 8.08297,
    "location": {
      "type": "Point",
      "coordinates": [
        8.08297,
        50.707699
      ]
    },
    "aliases": [
      "EDKS"
    ],
    "timezone": "Europe/Paris",
    "is_active": true
  },
  {
    "name": "Itzehoe Hungriger Wolf Airfield",
    "iata_code": "IZE",
    "icao_code": "EDHF",
    "type": "small_airport",
    "city": "Hohenlockstedt",
    "country_code": "DE",
    "country": "Germany",
    "latitude": 53.992009,
    "longitude": 9.576409,
    "location": {
      "type": "Point",
      "coordinates": [
        9.576409,
        53.992009
      ]
    },
    "aliases": [
      "Itzehoe"
    ],
    "timezone": "Europe/Paris",
    "is_active": true
  },
  {
    "name": "Hamburg-Finkenwerder Airport",
    "iata_code": "XFW",
    "icao_code": "EDHI",
    "type": "medium_airport",
    "city": "Hamburg",
    "country_code": "DE",
    "country": "Germany",
    "latitude": 53.5352783203125,
    "longitude": 9.835556030273438,
    "location": {
      "type": "Point",
      "coordinates": [
        9.835556030273438,
        53.5352783203125
      ]
    },
    "aliases": [],
    "timezone": "Europe/Paris",
    "is_active": true
  },
  {
    "name": "Kiel-Holtenau Airport",
    "iata_code": "KEL",
    "icao_code": "EDHK",
    "type": "medium_airport",
    "city": "Kiel",
    "country_code": "DE",
    "country": "Germany",
    "latitude": 54.37957,
    "longitude": 10.145266,
    "location": {
      "type": "Point",
      "coordinates": [
        10.145266,
        54.37957
      ]
    },
    "aliases": [],
    "timezone": "Europe/Paris",
    "is_active": true
  },
  {
    "name": "Lübeck Blankensee Airport",
    "iata_code": "LBC",
    "icao_code": "EDHL",
    "type": "medium_airport",
    "city": "Lübeck",
    "country_code": "DE",
    "country": "Germany",
    "latitude": 53.805401,
    "longitude": 10.7192,
    "location": {
      "type": "Point",
      "coordinates": [
        10.7192,
        53.805401
      ]
    },
    "aliases": [],
    "timezone": "Europe/Paris",
    "is_active": true
  },
  {
    "name": "Neumünster Airport",
    "iata_code": "EUM",
    "icao_code": "EDHN",
    "type": "small_airport",
    "city": "Neumünster",
    "country_code": "DE",
    "country": "Germany",
    "latitude": 54.079445,
    "longitude": 9.941389,
    "location": {
      "type": "Point",
      "coordinates": [
        9.941389,
        54.079445
      ]
    },
    "aliases": [],
    "timezone": "Europe/Paris",
    "is_active": true
  },
  {
    "name": "Memmingen Allgau Airport",
    "iata_code": "FMM",
    "icao_code": "EDJA",
    "type": "large_airport",
    "city": "Memmingen",
    "country_code": "DE",
    "country": "Germany",
    "latitude": 47.988092,
    "longitude": 10.238248,
    "location": {
      "type": "Point",
      "coordinates": [
        10.238248,
        47.988092
      ]
    },
    "aliases": [],
    "timezone": "Europe/Paris",
    "is_active": true
  },
  {
    "name": "Aachen-Merzbrück Airport",
    "iata_code": "AAH",
    "icao_code": "EDKA",
    "type": "small_airport",
    "city": "Aachen",
    "country_code": "DE",
    "country": "Germany",
    "latitude": 50.823055,
    "longitude": 6.186389,
    "location": {
      "type": "Point",
      "coordinates": [
        6.186389,
        50.823055
      ]
    },
    "aliases": [
      "EDCM",
      "ETBA",
      "Flugplatz Aachen Merzbrück",
      "Segelflug Aachen",
      "Motorflug Aachen"
    ],
    "timezone": "Europe/Paris",
    "is_active": true
  },
  {
    "name": "Essen-Mülheim Airport",
    "iata_code": "ESS",
    "icao_code": "EDLE",
    "type": "small_airport",
    "city": "Essen",
    "country_code": "DE",
    "country": "Germany",
    "latitude": 51.402302,
    "longitude": 6.93733,
    "location": {
      "type": "Point",
      "coordinates": [
        6.93733,
        51.402302
      ]
    },
    "aliases": [],
    "timezone": "Europe/Paris",
    "is_active": true
  },
  {
    "name": "Bielefeld Airport",
    "iata_code": "BFE",
    "icao_code": "EDLI",
    "type": "medium_airport",
    "city": "Bielefeld",
    "country_code": "DE",
    "country": "Germany",
    "latitude": 51.964722,
    "longitude": 8.544444,
    "location": {
      "type": "Point",
      "coordinates": [
        8.544444,
        51.964722
      ]
    },
    "aliases": [
      "Flugplatz-Windelsbleiche"
    ],
    "timezone": "Europe/Paris",
    "is_active": true
  },
  {
    "name": "Mönchengladbach Airport",
    "iata_code": "MGL",
    "icao_code": "EDLN",
    "type": "medium_airport",
    "city": "Mönchengladbach",
    "country_code": "DE",
    "country": "Germany",
    "latitude": 51.230278,
    "longitude": 6.504444,
    "location": {
      "type": "Point",
      "coordinates": [
        6.504444,
        51.230278
      ]
    },
    "aliases": [],
    "timezone": "Europe/Paris",
    "is_active": true
  },
  {
    "name": "Paderborn Lippstadt Airport",
    "iata_code": "PAD",
    "icao_code": "EDLP",
    "type": "large_airport",
    "city": "Büren",
    "country_code": "DE",
    "country": "Germany",
    "latitude": 51.612527,
    "longitude": 8.617459,
    "location": {
      "type": "Point",
      "coordinates": [
        8.617459,
        51.612527
      ]
    },
    "aliases": [],
    "timezone": "Europe/Paris",
    "is_active": true
  },
  {
    "name": "Weeze (Niederrhein) Airport",
    "iata_code": "NRN",
    "icao_code": "EDLV",
    "type": "large_airport",
    "city": "Weeze",
    "country_code": "DE",
    "country": "Germany",
    "latitude": 51.601362,
    "longitude": 6.141228,
    "location": {
      "type": "Point",
      "coordinates": [
        6.141228,
        51.601362
      ]
    },
    "aliases": [
      "LRC",
      "ETUL",
      "Niederrhein Airport",
      "RAF Laarbruch",
      "Düsseldorf Regional",
      "Weeze"
    ],
    "timezone": "Europe/Paris",
    "is_active": true
  },
  {
    "name": "Dortmund Airport",
    "iata_code": "DTM",
    "icao_code": "EDLW",
    "type": "large_airport",
    "city": "Dortmund",
    "country_code": "DE",
    "country": "Germany",
    "latitude": 51.518299,
    "longitude": 7.61224,
    "location": {
      "type": "Point",
      "coordinates": [
        7.61224,
        51.518299
      ]
    },
    "aliases": [],
    "timezone": "Europe/Paris",
    "is_active": true
  },
  {
    "name": "Augsburg Airport",
    "iata_code": "AGB",
    "icao_code": "EDMA",
    "type": "medium_airport",
    "city": "Augsburg",
    "country_code": "DE",
    "country": "Germany",
    "latitude": 48.425278,
    "longitude": 10.931667,
    "location": {
      "type": "Point",
      "coordinates": [
        10.931667,
        48.425278
      ]
    },
    "aliases": [],
    "timezone": "Europe/Paris",
    "is_active": true
  },
  {
    "name": "Oberpfaffenhofen Airport",
    "iata_code": "OBF",
    "icao_code": "EDMO",
    "type": "medium_airport",
    "city": "Weßling",
    "country_code": "DE",
    "country": "Germany",
    "latitude": 48.081402,
    "longitude": 11.2831,
    "location": {
      "type": "Point",
      "coordinates": [
        11.2831,
        48.081402
      ]
    },
    "aliases": [
      "Weßling"
    ],
    "timezone": "Europe/Paris",
    "is_active": true
  },
  {
    "name": "Straubing Airport",
    "iata_code": "RBM",
    "icao_code": "EDMS",
    "type": "small_airport",
    "city": "Atting",
    "country_code": "DE",
    "country": "Germany",
    "latitude": 48.900833,
    "longitude": 12.516667,
    "location": {
      "type": "Point",
      "coordinates": [
        12.516667,
        48.900833
      ]
    },
    "aliases": [],
    "timezone": "Europe/Paris",
    "is_active": true
  },
  {
    "name": "Bodensee Airport Friedrichshafen",
    "iata_code": "FDH",
    "icao_code": "EDNY",
    "type": "large_airport",
    "city": "Friedrichshafen",
    "country_code": "DE",
    "country": "Germany",
    "latitude": 47.671299,
    "longitude": 9.51149,
    "location": {
      "type": "Point",
      "coordinates": [
        9.51149,
        47.671299
      ]
    },
    "aliases": [
      "Bodensee Airport Friedrichshafen"
    ],
    "timezone": "Europe/Paris",
    "is_active": true
  },
  {
    "name": "Bayreuth Airport",
    "iata_code": "BYU",
    "icao_code": "EDQD",
    "type": "medium_airport",
    "city": "Bindlach",
    "country_code": "DE",
    "country": "Germany",
    "latitude": 49.985001,
    "longitude": 11.64,
    "location": {
      "type": "Point",
      "coordinates": [
        11.64,
        49.985001
      ]
    },
    "aliases": [
      "Bindlacher Berg Airport"
    ],
    "timezone": "Europe/Paris",
    "is_active": true
  },
  {
    "name": "Burg Feuerstein Airport",
    "iata_code": "URD",
    "icao_code": "EDQE",
    "type": "small_airport",
    "city": "Ebermannstadt",
    "country_code": "DE",
    "country": "Germany",
    "latitude": 49.794167,
    "longitude": 11.133611,
    "location": {
      "type": "Point",
      "coordinates": [
        11.133611,
        49.794167
      ]
    },
    "aliases": [],
    "timezone": "Europe/Paris",
    "is_active": true
  },
  {
    "name": "Giebelstadt Airport",
    "iata_code": "GHF",
    "icao_code": "EDQG",
    "type": "small_airport",
    "city": "Giebelstadt",
    "country_code": "DE",
    "country": "Germany",
    "latitude": 49.6480560303,
    "longitude": 9.966388702390002,
    "location": {
      "type": "Point",
      "coordinates": [
        9.966388702390002,
        49.6480560303
      ]
    },
    "aliases": [],
    "timezone": "Europe/Paris",
    "is_active": true
  },
  {
    "name": "Hof-Plauen Airport",
    "iata_code": "HOQ",
    "icao_code": "EDQM",
    "type": "medium_airport",
    "city": "Hof",
    "country_code": "DE",
    "country": "Germany",
    "latitude": 50.288544,
    "longitude": 11.852876,
    "location": {
      "type": "Point",
      "coordinates": [
        11.852876,
        50.288544
      ]
    },
    "aliases": [],
    "timezone": "Europe/Paris",
    "is_active": true
  },
  {
    "name": "Bitburg Airport",
    "iata_code": "BBJ",
    "icao_code": "EDRB",
    "type": "small_airport",
    "city": "Bitburg",
    "country_code": "DE",
    "country": "Germany",
    "latitude": 49.945278,
    "longitude": 6.565,
    "location": {
      "type": "Point",
      "coordinates": [
        6.565,
        49.945278
      ]
    },
    "aliases": [],
    "timezone": "Europe/Paris",
    "is_active": true
  },
  {
    "name": "Zweibrücken Airport",
    "iata_code": "ZQW",
    "icao_code": "EDRZ",
    "type": "small_airport",
    "city": "Zweibrücken",
    "country_code": "DE",
    "country": "Germany",
    "latitude": 49.2094,
    "longitude": 7.40056,
    "location": {
      "type": "Point",
      "coordinates": [
        7.40056,
        49.2094
      ]
    },
    "aliases": [],
    "timezone": "Europe/Paris",
    "is_active": true
  },
  {
    "name": "Karlsruhe Baden-Baden Airport",
    "iata_code": "FKB",
    "icao_code": "EDSB",
    "type": "large_airport",
    "city": "Rheinmünster",
    "country_code": "DE",
    "country": "Germany",
    "latitude": 48.7794,
    "longitude": 8.0805,
    "location": {
      "type": "Point",
      "coordinates": [
        8.0805,
        48.7794
      ]
    },
    "aliases": [
      "Baden Airpark"
    ],
    "timezone": "Europe/Paris",
    "is_active": true
  },
  {
    "name": "Lahr Airport",
    "iata_code": "LHA",
    "icao_code": "EDTL",
    "type": "medium_airport",
    "city": "Lahr/Schwarzwald",
    "country_code": "DE",
    "country": "Germany",
    "latitude": 48.369301,
    "longitude": 7.82772,
    "location": {
      "type": "Point",
      "coordinates": [
        7.82772,
        48.369301
      ]
    },
    "aliases": [
      "Black Forest Airport"
    ],
    "timezone": "Europe/Paris",
    "is_active": true
  },
  {
    "name": "Braunschweig-Wolfsburg Airport",
    "iata_code": "BWE",
    "icao_code": "EDVE",
    "type": "medium_airport",
    "city": "Braunschweig",
    "country_code": "DE",
    "country": "Germany",
    "latitude": 52.319199,
    "longitude": 10.5561,
    "location": {
      "type": "Point",
      "coordinates": [
        10.5561,
        52.319199
      ]
    },
    "aliases": [],
    "timezone": "Europe/Paris",
    "is_active": true
  },
  {
    "name": "Kassel Airport",
    "iata_code": "KSF",
    "icao_code": "EDVK",
    "type": "large_airport",
    "city": "Calden",
    "country_code": "DE",
    "country": "Germany",
    "latitude": 51.418395,
    "longitude": 9.391638,
    "location": {
      "type": "Point",
      "coordinates": [
        9.391638,
        51.418395
      ]
    },
    "aliases": [
      "Kassel-Calden"
    ],
    "timezone": "Europe/Paris",
    "is_active": true
  },
  {
    "name": "Emden Airport",
    "iata_code": "EME",
    "icao_code": "EDWE",
    "type": "small_airport",
    "city": "Emden",
    "country_code": "DE",
    "country": "Germany",
    "latitude": 53.391109,
    "longitude": 7.2275,
    "location": {
      "type": "Point",
      "coordinates": [
        7.2275,
        53.391109
      ]
    },
    "aliases": [],
    "timezone": "Europe/Paris",
    "is_active": true
  },
  {
    "name": "Wangerooge Airport",
    "iata_code": "AGE",
    "icao_code": "EDWG",
    "type": "small_airport",
    "city": "Wangerooge",
    "country_code": "DE",
    "country": "Germany",
    "latitude": 53.782544,
    "longitude": 7.919584,
    "location": {
      "type": "Point",
      "coordinates": [
        7.919584,
        53.782544
      ]
    },
    "aliases": [],
    "timezone": "Europe/Paris",
    "is_active": true
  },
  {
    "name": "JadeWeser Airport",
    "iata_code": "WVN",
    "icao_code": "EDWI",
    "type": "small_airport",
    "city": "Wilhelmshaven",
    "country_code": "DE",
    "country": "Germany",
    "latitude": 53.50222,
    "longitude": 8.052222,
    "location": {
      "type": "Point",
      "coordinates": [
        8.052222,
        53.50222
      ]
    },
    "aliases": [
      "Wilhelmshaven-Mariensiel"
    ],
    "timezone": "Europe/Paris",
    "is_active": true
  },
  {
    "name": "Juist Airport",
    "iata_code": "JUI",
    "icao_code": "EDWJ",
    "type": "small_airport",
    "city": "Juist",
    "country_code": "DE",
    "country": "Germany",
    "latitude": 53.681421,
    "longitude": 7.056398,
    "location": {
      "type": "Point",
      "coordinates": [
        7.056398,
        53.681421
      ]
    },
    "aliases": [],
    "timezone": "Europe/Paris",
    "is_active": true
  },
  {
    "name": "Langeoog Airport",
    "iata_code": "LGO",
    "icao_code": "EDWL",
    "type": "small_airport",
    "city": "Langeoog",
    "country_code": "DE",
    "country": "Germany",
    "latitude": 53.742379,
    "longitude": 7.496345,
    "location": {
      "type": "Point",
      "coordinates": [
        7.496345,
        53.742379
      ]
    },
    "aliases": [],
    "timezone": "Europe/Paris",
    "is_active": true
  },
  {
    "name": "Borkum Airport",
    "iata_code": "BMK",
    "icao_code": "EDWR",
    "type": "small_airport",
    "city": "Borkum",
    "country_code": "DE",
    "country": "Germany",
    "latitude": 53.59639,
    "longitude": 6.709167,
    "location": {
      "type": "Point",
      "coordinates": [
        6.709167,
        53.59639
      ]
    },
    "aliases": [
      "Borkum"
    ],
    "timezone": "Europe/Paris",
    "is_active": true
  },
  {
    "name": "Norden-Norddeich Airport",
    "iata_code": "NOD",
    "icao_code": "EDWS",
    "type": "small_airport",
    "city": "Norddeich",
    "country_code": "DE",
    "country": "Germany",
    "latitude": 53.633057,
    "longitude": 7.190278,
    "location": {
      "type": "Point",
      "coordinates": [
        7.190278,
        53.633057
      ]
    },
    "aliases": [],
    "timezone": "Europe/Paris",
    "is_active": true
  },
  {
    "name": "Varrelbusch Airfield",
    "iata_code": "VAC",
    "icao_code": "EDWU",
    "type": "small_airport",
    "city": "Cloppenburg",
    "country_code": "DE",
    "country": "Germany",
    "latitude": 52.908333,
    "longitude": 8.040556,
    "location": {
      "type": "Point",
      "coordinates": [
        8.040556,
        52.908333
      ]
    },
    "aliases": [],
    "timezone": "Europe/Paris",
    "is_active": true
  },
  {
    "name": "Norderney Airport",
    "iata_code": "NRD",
    "icao_code": "EDWY",
    "type": "small_airport",
    "city": "Norderney",
    "country_code": "DE",
    "country": "Germany",
    "latitude": 53.706944,
    "longitude": 7.23,
    "location": {
      "type": "Point",
      "coordinates": [
        7.23,
        53.706944
      ]
    },
    "aliases": [],
    "timezone": "Europe/Paris",
    "is_active": true
  },
  {
    "name": "Baltrum Airport",
    "iata_code": "BMR",
    "icao_code": "EDWZ",
    "type": "small_airport",
    "city": "Baltrum",
    "country_code": "DE",
    "country": "Germany",
    "latitude": 53.72485,
    "longitude": 7.373257,
    "location": {
      "type": "Point",
      "coordinates": [
        7.373257,
        53.72485
      ]
    },
    "aliases": [],
    "timezone": "Europe/Paris",
    "is_active": true
  },
  {
    "name": "Heide-Büsum Airport",
    "iata_code": "HEI",
    "icao_code": "EDXB",
    "type": "small_airport",
    "city": "Oesterdeichstrich",
    "country_code": "DE",
    "country": "Germany",
    "latitude": 54.153332,
    "longitude": 8.901667,
    "location": {
      "type": "Point",
      "coordinates": [
        8.901667,
        54.153332
      ]
    },
    "aliases": [],
    "timezone": "Europe/Paris",
    "is_active": true
  },
  {
    "name": "Flensburg-Schäferhaus Airport",
    "iata_code": "FLF",
    "icao_code": "EDXF",
    "type": "small_airport",
    "city": "Flensburg",
    "country_code": "DE",
    "country": "Germany",
    "latitude": 54.773335,
    "longitude": 9.378889,
    "location": {
      "type": "Point",
      "coordinates": [
        9.378889,
        54.773335
      ]
    },
    "aliases": [],
    "timezone": "Europe/Paris",
    "is_active": true
  },
  {
    "name": "Helgoland-Düne Airport",
    "iata_code": "HGL",
    "icao_code": "EDXH",
    "type": "small_airport",
    "city": "Helgoland",
    "country_code": "DE",
    "country": "Germany",
    "latitude": 54.18528,
    "longitude": 7.915833,
    "location": {
      "type": "Point",
      "coordinates": [
        7.915833,
        54.18528
      ]
    },
    "aliases": [],
    "timezone": "Europe/Paris",
    "is_active": true
  },
  {
    "name": "Husum-Schwesing Airport",
    "iata_code": "QHU",
    "icao_code": "EDXJ",
    "type": "small_airport",
    "city": "Husum",
    "country_code": "DE",
    "country": "Germany",
    "latitude": 54.5099983215,
    "longitude": 9.138333320620001,
    "location": {
      "type": "Point",
      "coordinates": [
        9.138333320620001,
        54.5099983215
      ]
    },
    "aliases": [],
    "timezone": "Europe/Paris",
    "is_active": true
  },
  {
    "name": "Sankt Peter-Ording Airport",
    "iata_code": "PSH",
    "icao_code": "EDXO",
    "type": "small_airport",
    "city": "Sankt Peter-Ording",
    "country_code": "DE",
    "country": "Germany",
    "latitude": 54.308887,
    "longitude": 8.686944,
    "location": {
      "type": "Point",
      "coordinates": [
        8.686944,
        54.308887
      ]
    },
    "aliases": [
      "Saint Peter-Ording",
      "St. Peter-Ording"
    ],
    "timezone": "Europe/Paris",
    "is_active": true
  },
  {
    "name": "Westerland Sylt Airport",
    "iata_code": "GWT",
    "icao_code": "EDXW",
    "type": "medium_airport",
    "city": "Sylt",
    "country_code": "DE",
    "country": "Germany",
    "latitude": 54.9132,
    "longitude": 8.34047,
    "location": {
      "type": "Point",
      "coordinates": [
        8.34047,
        54.9132
      ]
    },
    "aliases": [],
    "timezone": "Europe/Paris",
    "is_active": true
  },
  {
    "name": "Wyk auf Föhr Airport",
    "iata_code": "OHR",
    "icao_code": "EDXY",
    "type": "small_airport",
    "city": "Wyk auf Föhr",
    "country_code": "DE",
    "country": "Germany",
    "latitude": 54.684444,
    "longitude": 8.528333,
    "location": {
      "type": "Point",
      "coordinates": [
        8.528333,
        54.684444
      ]
    },
    "aliases": [],
    "timezone": "Europe/Paris",
    "is_active": true
  },
  {
    "name": "Kärdla Airport",
    "iata_code": "KDL",
    "icao_code": "EEKA",
    "type": "medium_airport",
    "city": "Kärdla",
    "country_code": "EE",
    "country": "EE",
    "latitude": 58.99079895019531,
    "longitude": 22.830699920654297,
    "location": {
      "type": "Point",
      "coordinates": [
        22.830699920654297,
        58.99079895019531
      ]
    },
    "aliases": [],
    "timezone": "Europe/Paris",
    "is_active": true
  },
  {
    "name": "Kuressaare Airport",
    "iata_code": "URE",
    "icao_code": "EEKE",
    "type": "medium_airport",
    "city": "Kuressaare",
    "country_code": "EE",
    "country": "EE",
    "latitude": 58.22990036010742,
    "longitude": 22.50950050354004,
    "location": {
      "type": "Point",
      "coordinates": [
        22.50950050354004,
        58.22990036010742
      ]
    },
    "aliases": [],
    "timezone": "Europe/Paris",
    "is_active": true
  },
  {
    "name": "Pärnu Airport",
    "iata_code": "EPU",
    "icao_code": "EEPU",
    "type": "medium_airport",
    "city": "Pärnu",
    "country_code": "EE",
    "country": "EE",
    "latitude": 58.41899871826172,
    "longitude": 24.47279930114746,
    "location": {
      "type": "Point",
      "coordinates": [
        24.47279930114746,
        58.41899871826172
      ]
    },
    "aliases": [],
    "timezone": "Europe/Paris",
    "is_active": true
  },
  {
    "name": "Lennart Meri Tallinn Airport",
    "iata_code": "TLL",
    "icao_code": "EETN",
    "type": "large_airport",
    "city": "Tallinn",
    "country_code": "EE",
    "country": "EE",
    "latitude": 59.413246,
    "longitude": 24.83264,
    "location": {
      "type": "Point",
      "coordinates": [
        24.83264,
        59.413246
      ]
    },
    "aliases": [],
    "timezone": "Europe/Paris",
    "is_active": true
  },
  {
    "name": "Tartu Airport",
    "iata_code": "TAY",
    "icao_code": "EETU",
    "type": "medium_airport",
    "city": "Reola",
    "country_code": "EE",
    "country": "EE",
    "latitude": 58.307438,
    "longitude": 26.686473,
    "location": {
      "type": "Point",
      "coordinates": [
        26.686473,
        58.307438
      ]
    },
    "aliases": [],
    "timezone": "Europe/Paris",
    "is_active": true
  },
  {
    "name": "Enontekio Airport",
    "iata_code": "ENF",
    "icao_code": "EFET",
    "type": "medium_airport",
    "city": "Enontekio",
    "country_code": "FI",
    "country": "Finland",
    "latitude": 68.362602233887,
    "longitude": 23.424299240112,
    "location": {
      "type": "Point",
      "coordinates": [
        23.424299240112,
        68.362602233887
      ]
    },
    "aliases": [],
    "timezone": "Europe/Paris",
    "is_active": true
  },
  {
    "name": "Halli Airport",
    "iata_code": "KEV",
    "icao_code": "EFHA",
    "type": "medium_airport",
    "city": "Jämsä",
    "country_code": "FI",
    "country": "Finland",
    "latitude": 61.856039,
    "longitude": 24.786686,
    "location": {
      "type": "Point",
      "coordinates": [
        24.786686,
        61.856039
      ]
    },
    "aliases": [
      "Halli Air Base"
    ],
    "timezone": "Europe/Paris",
    "is_active": true
  },
  {
    "name": "Helsinki Vantaa Airport",
    "iata_code": "HEL",
    "icao_code": "EFHK",
    "type": "large_airport",
    "city": "Helsinki (Vantaa)",
    "country_code": "FI",
    "country": "Finland",
    "latitude": 60.318363,
    "longitude": 24.963341,
    "location": {
      "type": "Point",
      "coordinates": [
        24.963341,
        60.318363
      ]
    },
    "aliases": [],
    "timezone": "Europe/Paris",
    "is_active": true
  },
  {
    "name": "Hyvinkää Airfield",
    "iata_code": "HYV",
    "icao_code": "EFHV",
    "type": "small_airport",
    "city": "Hyvinkää",
    "country_code": "FI",
    "country": "Finland",
    "latitude": 60.6544,
    "longitude": 24.8811,
    "location": {
      "type": "Point",
      "coordinates": [
        24.8811,
        60.6544
      ]
    },
    "aliases": [],
    "timezone": "Europe/Paris",
    "is_active": true
  },
  {
    "name": "Kitee Airport",
    "iata_code": "KTQ",
    "icao_code": "EFIT",
    "type": "medium_airport",
    "city": "Kitee",
    "country_code": "FI",
    "country": "Finland",
    "latitude": 62.1661,
    "longitude": 30.073601,
    "location": {
      "type": "Point",
      "coordinates": [
        30.073601,
        62.1661
      ]
    },
    "aliases": [],
    "timezone": "Europe/Paris",
    "is_active": true
  },
  {
    "name": "Ivalo Airport",
    "iata_code": "IVL",
    "icao_code": "EFIV",
    "type": "large_airport",
    "city": "Ivalo",
    "country_code": "FI",
    "country": "Finland",
    "latitude": 68.6073,
    "longitude": 27.4053,
    "location": {
      "type": "Point",
      "coordinates": [
        27.4053,
        68.6073
      ]
    },
    "aliases": [],
    "timezone": "Europe/Paris",
    "is_active": true
  },
  {
    "name": "Joensuu Airport",
    "iata_code": "JOE",
    "icao_code": "EFJO",
    "type": "medium_airport",
    "city": "Joensuu",
    "country_code": "FI",
    "country": "Finland",
    "latitude": 62.658815,
    "longitude": 29.619398,
    "location": {
      "type": "Point",
      "coordinates": [
        29.619398,
        62.658815
      ]
    },
    "aliases": [],
    "timezone": "Europe/Paris",
    "is_active": true
  },
  {
    "name": "Jyväskylä Airport",
    "iata_code": "JYV",
    "icao_code": "EFJY",
    "type": "medium_airport",
    "city": "Jyväskylän Maalaiskunta",
    "country_code": "FI",
    "country": "Finland",
    "latitude": 62.399502,
    "longitude": 25.678301,
    "location": {
      "type": "Point",
      "coordinates": [
        25.678301,
        62.399502
      ]
    },
    "aliases": [],
    "timezone": "Europe/Paris",
    "is_active": true
  },
  {
    "name": "Kauhava Airfield",
    "iata_code": "KAU",
    "icao_code": "EFKA",
    "type": "medium_airport",
    "city": "Kauhava",
    "country_code": "FI",
    "country": "Finland",
    "latitude": 63.127102,
    "longitude": 23.051399,
    "location": {
      "type": "Point",
      "coordinates": [
        23.051399,
        63.127102
      ]
    },
    "aliases": [
      "Kauhava Air Base"
    ],
    "timezone": "Europe/Paris",
    "is_active": true
  },
  {
    "name": "Kemi-Tornio Airport",
    "iata_code": "KEM",
    "icao_code": "EFKE",
    "type": "medium_airport",
    "city": "Kemi / Tornio",
    "country_code": "FI",
    "country": "Finland",
    "latitude": 65.778701782227,
    "longitude": 24.582099914551,
    "location": {
      "type": "Point",
      "coordinates": [
        24.582099914551,
        65.778701782227
      ]
    },
    "aliases": [],
    "timezone": "Europe/Paris",
    "is_active": true
  },
  {
    "name": "Kajaani Airport",
    "iata_code": "KAJ",
    "icao_code": "EFKI",
    "type": "medium_airport",
    "city": "Kajaani",
    "country_code": "FI",
    "country": "Finland",
    "latitude": 64.2855,
    "longitude": 27.6924,
    "location": {
      "type": "Point",
      "coordinates": [
        27.6924,
        64.2855
      ]
    },
    "aliases": [],
    "timezone": "Europe/Paris",
    "is_active": true
  },
  {
    "name": "Kauhajoki Airfield",
    "iata_code": "KHJ",
    "icao_code": "EFKJ",
    "type": "medium_airport",
    "city": "Kauhajoki",
    "country_code": "FI",
    "country": "Finland",
    "latitude": 62.463212,
    "longitude": 22.390817,
    "location": {
      "type": "Point",
      "coordinates": [
        22.390817,
        62.463212
      ]
    },
    "aliases": [],
    "timezone": "Europe/Paris",
    "is_active": true
  },
  {
    "name": "Kokkola-Pietarsaari Airport",
    "iata_code": "KOK",
    "icao_code": "EFKK",
    "type": "medium_airport",
    "city": "Kokkola / Kruunupyy",
    "country_code": "FI",
    "country": "Finland",
    "latitude": 63.721199,
    "longitude": 23.143101,
    "location": {
      "type": "Point",
      "coordinates": [
        23.143101,
        63.721199
      ]
    },
    "aliases": [
      "Kronoby Airport"
    ],
    "timezone": "Europe/Paris",
    "is_active": true
  },
  {
    "name": "Kuusamo Airport",
    "iata_code": "KAO",
    "icao_code": "EFKS",
    "type": "medium_airport",
    "city": "Kuusamo",
    "country_code": "FI",
    "country": "Finland",
    "latitude": 65.987602,
    "longitude": 29.239401,
    "location": {
      "type": "Point",
      "coordinates": [
        29.239401,
        65.987602
      ]
    },
    "aliases": [],
    "timezone": "Europe/Paris",
    "is_active": true
  },
  {
    "name": "Kittilä International Airport",
    "iata_code": "KTT",
    "icao_code": "EFKT",
    "type": "large_airport",
    "city": "Kittilä",
    "country_code": "FI",
    "country": "Finland",
    "latitude": 67.700996,
    "longitude": 24.8468,
    "location": {
      "type": "Point",
      "coordinates": [
        24.8468,
        67.700996
      ]
    },
    "aliases": [],
    "timezone": "Europe/Paris",
    "is_active": true
  },
  {
    "name": "Kuopio Airport",
    "iata_code": "KUO",
    "icao_code": "EFKU",
    "type": "large_airport",
    "city": "Kuopio / Siilinjärvi",
    "country_code": "FI",
    "country": "Finland",
    "latitude": 63.007099,
    "longitude": 27.7978,
    "location": {
      "type": "Point",
      "coordinates": [
        27.7978,
        63.007099
      ]
    },
    "aliases": [],
    "timezone": "Europe/Paris",
    "is_active": true
  },
  {
    "name": "Lappeenranta Airport",
    "iata_code": "LPP",
    "icao_code": "EFLP",
    "type": "large_airport",
    "city": "Lappeenranta",
    "country_code": "FI",
    "country": "Finland",
    "latitude": 61.044601,
    "longitude": 28.144743,
    "location": {
      "type": "Point",
      "coordinates": [
        28.144743,
        61.044601
      ]
    },
    "aliases": [],
    "timezone": "Europe/Paris",
    "is_active": true
  },
  {
    "name": "Mariehamn Airport",
    "iata_code": "MHQ",
    "icao_code": "EFMA",
    "type": "medium_airport",
    "city": "Mariehamn",
    "country_code": "FI",
    "country": "Finland",
    "latitude": 60.1222,
    "longitude": 19.898199,
    "location": {
      "type": "Point",
      "coordinates": [
        19.898199,
        60.1222
      ]
    },
    "aliases": [],
    "timezone": "Europe/Paris",
    "is_active": true
  },
  {
    "name": "Mikkeli Airport",
    "iata_code": "MIK",
    "icao_code": "EFMI",
    "type": "medium_airport",
    "city": "Mikkeli",
    "country_code": "FI",
    "country": "Finland",
    "latitude": 61.6866,
    "longitude": 27.201799,
    "location": {
      "type": "Point",
      "coordinates": [
        27.201799,
        61.6866
      ]
    },
    "aliases": [],
    "timezone": "Europe/Paris",
    "is_active": true
  },
  {
    "name": "Oulu Airport",
    "iata_code": "OUL",
    "icao_code": "EFOU",
    "type": "large_airport",
    "city": "Oulu / Oulunsalo",
    "country_code": "FI",
    "country": "Finland",
    "latitude": 64.930099,
    "longitude": 25.354601,
    "location": {
      "type": "Point",
      "coordinates": [
        25.354601,
        64.930099
      ]
    },
    "aliases": [],
    "timezone": "Europe/Paris",
    "is_active": true
  },
  {
    "name": "Pori Airport",
    "iata_code": "POR",
    "icao_code": "EFPO",
    "type": "medium_airport",
    "city": "Pori",
    "country_code": "FI",
    "country": "Finland",
    "latitude": 61.4617,
    "longitude": 21.799999,
    "location": {
      "type": "Point",
      "coordinates": [
        21.799999,
        61.4617
      ]
    },
    "aliases": [],
    "timezone": "Europe/Paris",
    "is_active": true
  },
  {
    "name": "Rovaniemi Airport",
    "iata_code": "RVN",
    "icao_code": "EFRO",
    "type": "large_airport",
    "city": "Rovaniemi",
    "country_code": "FI",
    "country": "Finland",
    "latitude": 66.563327,
    "longitude": 25.829751,
    "location": {
      "type": "Point",
      "coordinates": [
        25.829751,
        66.563327
      ]
    },
    "aliases": [],
    "timezone": "Europe/Paris",
    "is_active": true
  },
  {
    "name": "Savonlinna Airport",
    "iata_code": "SVL",
    "icao_code": "EFSA",
    "type": "medium_airport",
    "city": "Savonlinna",
    "country_code": "FI",
    "country": "Finland",
    "latitude": 61.9431,
    "longitude": 28.945101,
    "location": {
      "type": "Point",
      "coordinates": [
        28.945101,
        61.9431
      ]
    },
    "aliases": [],
    "timezone": "Europe/Paris",
    "is_active": true
  },
  {
    "name": "Seinäjoki Airport",
    "iata_code": "SJY",
    "icao_code": "EFSI",
    "type": "medium_airport",
    "city": "Seinäjoki / Ilmajoki",
    "country_code": "FI",
    "country": "Finland",
    "latitude": 62.692101,
    "longitude": 22.8323,
    "location": {
      "type": "Point",
      "coordinates": [
        22.8323,
        62.692101
      ]
    },
    "aliases": [],
    "timezone": "Europe/Paris",
    "is_active": true
  },
  {
    "name": "Sodankyla Airport",
    "iata_code": "SOT",
    "icao_code": "EFSO",
    "type": "medium_airport",
    "city": "Sodankyla",
    "country_code": "FI",
    "country": "Finland",
    "latitude": 67.3949966431,
    "longitude": 26.6191005707,
    "location": {
      "type": "Point",
      "coordinates": [
        26.6191005707,
        67.3949966431
      ]
    },
    "aliases": [],
    "timezone": "Europe/Paris",
    "is_active": true
  },
  {
    "name": "Tampere-Pirkkala Airport",
    "iata_code": "TMP",
    "icao_code": "EFTP",
    "type": "large_airport",
    "city": "Tampere / Pirkkala",
    "country_code": "FI",
    "country": "Finland",
    "latitude": 61.414101,
    "longitude": 23.604401,
    "location": {
      "type": "Point",
      "coordinates": [
        23.604401,
        61.414101
      ]
    },
    "aliases": [],
    "timezone": "Europe/Paris",
    "is_active": true
  },
  {
    "name": "Turku Airport",
    "iata_code": "TKU",
    "icao_code": "EFTU",
    "type": "large_airport",
    "city": "Turku",
    "country_code": "FI",
    "country": "Finland",
    "latitude": 60.514099,
    "longitude": 22.2628,
    "location": {
      "type": "Point",
      "coordinates": [
        22.2628,
        60.514099
      ]
    },
    "aliases": [],
    "timezone": "Europe/Paris",
    "is_active": true
  },
  {
    "name": "Vaasa Airport",
    "iata_code": "VAA",
    "icao_code": "EFVA",
    "type": "large_airport",
    "city": "Vaasa",
    "country_code": "FI",
    "country": "Finland",
    "latitude": 63.05023,
    "longitude": 21.762543,
    "location": {
      "type": "Point",
      "coordinates": [
        21.762543,
        63.05023
      ]
    },
    "aliases": [],
    "timezone": "Europe/Paris",
    "is_active": true
  },
  {
    "name": "Varkaus Airport",
    "iata_code": "VRK",
    "icao_code": "EFVR",
    "type": "medium_airport",
    "city": "Varkaus / Joroinen",
    "country_code": "FI",
    "country": "Finland",
    "latitude": 62.171101,
    "longitude": 27.868601,
    "location": {
      "type": "Point",
      "coordinates": [
        27.868601,
        62.171101
      ]
    },
    "aliases": [],
    "timezone": "Europe/Paris",
    "is_active": true
  },
  {
    "name": "Ylivieska Airfield",
    "iata_code": "YLI",
    "icao_code": "EFYL",
    "type": "medium_airport",
    "city": "Ylivieska",
    "country_code": "FI",
    "country": "Finland",
    "latitude": 64.054722,
    "longitude": 24.725278,
    "location": {
      "type": "Point",
      "coordinates": [
        24.725278,
        64.054722
      ]
    },
    "aliases": [],
    "timezone": "Europe/Paris",
    "is_active": true
  },
  {
    "name": "Belfast International Airport",
    "iata_code": "BFS",
    "icao_code": "EGAA",
    "type": "large_airport",
    "city": "Belfast",
    "country_code": "GB",
    "country": "United Kingdom",
    "latitude": 54.6575012207,
    "longitude": -6.2158298492399995,
    "location": {
      "type": "Point",
      "coordinates": [
        -6.2158298492399995,
        54.6575012207
      ]
    },
    "aliases": [
      "Aldergrove",
      "RAF Aldergrove"
    ],
    "timezone": "Europe/Paris",
    "is_active": true
  },
  {
    "name": "Enniskillen/St Angelo Airport",
    "iata_code": "ENK",
    "icao_code": "EGAB",
    "type": "medium_airport",
    "city": "Enniskillen, Fermanagh and Omagh",
    "country_code": "GB",
    "country": "United Kingdom",
    "latitude": 54.398274,
    "longitude": -7.651179,
    "location": {
      "type": "Point",
      "coordinates": [
        -7.651179,
        54.398274
      ]
    },
    "aliases": [],
    "timezone": "Europe/Paris",
    "is_active": true
  },
  {
    "name": "George Best Belfast City Airport",
    "iata_code": "BHD",
    "icao_code": "EGAC",
    "type": "medium_airport",
    "city": "Belfast",
    "country_code": "GB",
    "country": "United Kingdom",
    "latitude": 54.618099,
    "longitude": -5.8725,
    "location": {
      "type": "Point",
      "coordinates": [
        -5.8725,
        54.618099
      ]
    },
    "aliases": [],
    "timezone": "Europe/Paris",
    "is_active": true
  },
  {
    "name": "City of Derry Airport",
    "iata_code": "LDY",
    "icao_code": "EGAE",
    "type": "medium_airport",
    "city": "Derry, Derry and Strabane",
    "country_code": "GB",
    "country": "United Kingdom",
    "latitude": 55.042801,
    "longitude": -7.16111,
    "location": {
      "type": "Point",
      "coordinates": [
        -7.16111,
        55.042801
      ]
    },
    "aliases": [
      "Londonderry Eglinton Airport"
    ],
    "timezone": "Europe/Paris",
    "is_active": true
  },
  {
    "name": "Birmingham Airport",
    "iata_code": "BHX",
    "icao_code": "EGBB",
    "type": "large_airport",
    "city": "Birmingham, West Midlands",
    "country_code": "GB",
    "country": "United Kingdom",
    "latitude": 52.453899,
    "longitude": -1.74803,
    "location": {
      "type": "Point",
      "coordinates": [
        -1.74803,
        52.453899
      ]
    },
    "aliases": [
      "Birmingham International Airport"
    ],
    "timezone": "Europe/Paris",
    "is_active": true
  },
  {
    "name": "Coventry Airport",
    "iata_code": "CVT",
    "icao_code": "EGBE",
    "type": "medium_airport",
    "city": "Coventry, West Midlands",
    "country_code": "GB",
    "country": "United Kingdom",
    "latitude": 52.369701,
    "longitude": -1.47972,
    "location": {
      "type": "Point",
      "coordinates": [
        -1.47972,
        52.369701
      ]
    },
    "aliases": [
      "RAF Baginton"
    ],
    "timezone": "Europe/Paris",
    "is_active": true
  },
  {
    "name": "Gloucestershire Airport",
    "iata_code": "GLO",
    "icao_code": "EGBJ",
    "type": "medium_airport",
    "city": "Staverton, Gloucestershire",
    "country_code": "GB",
    "country": "United Kingdom",
    "latitude": 51.894199,
    "longitude": -2.16722,
    "location": {
      "type": "Point",
      "coordinates": [
        -2.16722,
        51.894199
      ]
    },
    "aliases": [
      "Gloucester/Cheltenham"
    ],
    "timezone": "Europe/Paris",
    "is_active": true
  },
  {
    "name": "Sywell Aerodrome",
    "iata_code": "ORM",
    "icao_code": "EGBK",
    "type": "small_airport",
    "city": "Northampton, Northamptonshire",
    "country_code": "GB",
    "country": "United Kingdom",
    "latitude": 52.305302,
    "longitude": -0.793056,
    "location": {
      "type": "Point",
      "coordinates": [
        -0.793056,
        52.305302
      ]
    },
    "aliases": [],
    "timezone": "Europe/Paris",
    "is_active": true
  },
  {
    "name": "Nottingham City Airport",
    "iata_code": "NQT",
    "icao_code": "EGBN",
    "type": "medium_airport",
    "city": "Nottingham, Nottinghamshire",
    "country_code": "GB",
    "country": "United Kingdom",
    "latitude": 52.919998,
    "longitude": -1.07917,
    "location": {
      "type": "Point",
      "coordinates": [
        -1.07917,
        52.919998
      ]
    },
    "aliases": [],
    "timezone": "Europe/Paris",
    "is_active": true
  },
  {
    "name": "Cotswold Airport",
    "iata_code": "GBA",
    "icao_code": "EGBP",
    "type": "small_airport",
    "city": "Cirencester, Gloucestershire",
    "country_code": "GB",
    "country": "United Kingdom",
    "latitude": 51.668528,
    "longitude": -2.056599,
    "location": {
      "type": "Point",
      "coordinates": [
        -2.056599,
        51.668528
      ]
    },
    "aliases": [
      "RAF Kemble",
      "Kemble Airfield",
      "Kemble Airport",
      "Cotswold Airport"
    ],
    "timezone": "Europe/Paris",
    "is_active": true
  },
  {
    "name": "Manchester Airport",
    "iata_code": "MAN",
    "icao_code": "EGCC",
    "type": "large_airport",
    "city": "Manchester, Greater Manchester",
    "country_code": "GB",
    "country": "United Kingdom",
    "latitude": 53.349375,
    "longitude": -2.279521,
    "location": {
      "type": "Point",
      "coordinates": [
        -2.279521,
        53.349375
      ]
    },
    "aliases": [
      "Ringway Airport",
      "RAF Ringway"
    ],
    "timezone": "Europe/Paris",
    "is_active": true
  },
  {
    "name": "Upavon Aerodrome",
    "iata_code": "UPV",
    "icao_code": "EGDJ",
    "type": "small_airport",
    "city": "Pewsey, Wiltshire",
    "country_code": "GB",
    "country": "United Kingdom",
    "latitude": 51.28657,
    "longitude": -1.782239,
    "location": {
      "type": "Point",
      "coordinates": [
        -1.782239,
        51.28657
      ]
    },
    "aliases": [
      "RAF Upavon",
      "Trenchard Lines",
      "Salisbury Plain"
    ],
    "timezone": "Europe/Paris",
    "is_active": true
  },
  {
    "name": "RNAS Yeovilton",
    "iata_code": "YEO",
    "icao_code": "EGDY",
    "type": "medium_airport",
    "city": "Yeovil, Somerset",
    "country_code": "GB",
    "country": "United Kingdom",
    "latitude": 51.009399,
    "longitude": -2.63882,
    "location": {
      "type": "Point",
      "coordinates": [
        -2.63882,
        51.009399
      ]
    },
    "aliases": [],
    "timezone": "Europe/Paris",
    "is_active": true
  },
  {
    "name": "Campbeltown Airport",
    "iata_code": "CAL",
    "icao_code": "EGEC",
    "type": "medium_airport",
    "city": "Campbeltown",
    "country_code": "GB",
    "country": "United Kingdom",
    "latitude": 55.437199,
    "longitude": -5.68639,
    "location": {
      "type": "Point",
      "coordinates": [
        -5.68639,
        55.437199
      ]
    },
    "aliases": [
      "Kintyre",
      "RAF Machrihanish",
      "Kinlochkilkerran"
    ],
    "timezone": "Europe/Paris",
    "is_active": true
  },
  {
    "name": "Eday Airport",
    "iata_code": "EOI",
    "icao_code": "EGED",
    "type": "medium_airport",
    "city": "Eday",
    "country_code": "GB",
    "country": "United Kingdom",
    "latitude": 59.19060134887695,
    "longitude": -2.7722198963165283,
    "location": {
      "type": "Point",
      "coordinates": [
        -2.7722198963165283,
        59.19060134887695
      ]
    },
    "aliases": [
      "London Airport"
    ],
    "timezone": "Europe/Paris",
    "is_active": true
  },
  {
    "name": "Fair Isle Airport",
    "iata_code": "FIE",
    "icao_code": "EGEF",
    "type": "small_airport",
    "city": "Fair Isle",
    "country_code": "GB",
    "country": "United Kingdom",
    "latitude": 59.534721,
    "longitude": -1.628509,
    "location": {
      "type": "Point",
      "coordinates": [
        -1.628509,
        59.534721
      ]
    },
    "aliases": [],
    "timezone": "Europe/Paris",
    "is_active": true
  },
  {
    "name": "Whalsay Airstrip",
    "iata_code": "WHS",
    "icao_code": "EGEH",
    "type": "small_airport",
    "city": "Whalsay, Shetlands",
    "country_code": "GB",
    "country": "United Kingdom",
    "latitude": 60.376835,
    "longitude": -0.927229,
    "location": {
      "type": "Point",
      "coordinates": [
        -0.927229,
        60.376835
      ]
    },
    "aliases": [],
    "timezone": "Europe/Paris",
    "is_active": true
  },
  {
    "name": "Broadford Airstrip",
    "iata_code": "SKL",
    "icao_code": "EGEI",
    "type": "small_airport",
    "city": "Ashaig, Highland",
    "country_code": "GB",
    "country": "United Kingdom",
    "latitude": 57.253131,
    "longitude": -5.827755,
    "location": {
      "type": "Point",
      "coordinates": [
        -5.827755,
        57.253131
      ]
    },
    "aliases": [
      "Ashaig Airstrip",
      "Isle of Sky Airstrip",
      "Broadford"
    ],
    "timezone": "Europe/Paris",
    "is_active": true
  },
  {
    "name": "Coll Airport",
    "iata_code": "COL",
    "icao_code": "EGEL",
    "type": "small_airport",
    "city": "Coll Island",
    "country_code": "GB",
    "country": "United Kingdom",
    "latitude": 56.601898,
    "longitude": -6.61778,
    "location": {
      "type": "Point",
      "coordinates": [
        -6.61778,
        56.601898
      ]
    },
    "aliases": [],
    "timezone": "Europe/Paris",
    "is_active": true
  },
  {
    "name": "North Ronaldsay Airport",
    "iata_code": "NRL",
    "icao_code": "EGEN",
    "type": "small_airport",
    "city": "North Ronaldsay",
    "country_code": "GB",
    "country": "United Kingdom",
    "latitude": 59.3675003052,
    "longitude": -2.43443989754,
    "location": {
      "type": "Point",
      "coordinates": [
        -2.43443989754,
        59.3675003052
      ]
    },
    "aliases": [],
    "timezone": "Europe/Paris",
    "is_active": true
  },
  {
    "name": "Oban Airport",
    "iata_code": "OBN",
    "icao_code": "EGEO",
    "type": "small_airport",
    "city": "North Connel",
    "country_code": "GB",
    "country": "United Kingdom",
    "latitude": 56.463501,
    "longitude": -5.39967,
    "location": {
      "type": "Point",
      "coordinates": [
        -5.39967,
        56.463501
      ]
    },
    "aliases": [],
    "timezone": "Europe/Paris",
    "is_active": true
  },
  {
    "name": "Papa Westray Airport",
    "iata_code": "PPW",
    "icao_code": "EGEP",
    "type": "small_airport",
    "city": "Papa Westray",
    "country_code": "GB",
    "country": "United Kingdom",
    "latitude": 59.351699829100006,
    "longitude": -2.9002799987800003,
    "location": {
      "type": "Point",
      "coordinates": [
        -2.9002799987800003,
        59.351699829100006
      ]
    },
    "aliases": [
      "Papay"
    ],
    "timezone": "Europe/Paris",
    "is_active": true
  },
  {
    "name": "Stronsay Airport",
    "iata_code": "SOY",
    "icao_code": "EGER",
    "type": "small_airport",
    "city": "Stronsay",
    "country_code": "GB",
    "country": "United Kingdom",
    "latitude": 59.1553,
    "longitude": -2.64139,
    "location": {
      "type": "Point",
      "coordinates": [
        -2.64139,
        59.1553
      ]
    },
    "aliases": [],
    "timezone": "Europe/Paris",
    "is_active": true
  },
  {
    "name": "Sanday Airport",
    "iata_code": "NDY",
    "icao_code": "EGES",
    "type": "small_airport",
    "city": "Sanday",
    "country_code": "GB",
    "country": "United Kingdom",
    "latitude": 59.250301,
    "longitude": -2.57667,
    "location": {
      "type": "Point",
      "coordinates": [
        -2.57667,
        59.250301
      ]
    },
    "aliases": [],
    "timezone": "Europe/Paris",
    "is_active": true
  },
  {
    "name": "Lerwick / Tingwall Airport",
    "iata_code": "LWK",
    "icao_code": "EGET",
    "type": "small_airport",
    "city": "Lerwick, Shetland Islands",
    "country_code": "GB",
    "country": "United Kingdom",
    "latitude": 60.1922,
    "longitude": -1.24361,
    "location": {
      "type": "Point",
      "coordinates": [
        -1.24361,
        60.1922
      ]
    },
    "aliases": [
      "Lerwick"
    ],
    "timezone": "Europe/Paris",
    "is_active": true
  },
  {
    "name": "Westray Airport",
    "iata_code": "WRY",
    "icao_code": "EGEW",
    "type": "small_airport",
    "city": "Westray",
    "country_code": "GB",
    "country": "United Kingdom",
    "latitude": 59.3502998352,
    "longitude": -2.95000004768,
    "location": {
      "type": "Point",
      "coordinates": [
        -2.95000004768,
        59.3502998352
      ]
    },
    "aliases": [],
    "timezone": "Europe/Paris",
    "is_active": true
  },
  {
    "name": "Colonsay Airstrip",
    "iata_code": "CSA",
    "icao_code": "EGEY",
    "type": "small_airport",
    "city": "Colonsay",
    "country_code": "GB",
    "country": "United Kingdom",
    "latitude": 56.057499,
    "longitude": -6.24306,
    "location": {
      "type": "Point",
      "coordinates": [
        -6.24306,
        56.057499
      ]
    },
    "aliases": [
      "Machrins"
    ],
    "timezone": "Europe/Paris",
    "is_active": true
  },
  {
    "name": "Haverfordwest Airport",
    "iata_code": "HAW",
    "icao_code": "EGFE",
    "type": "medium_airport",
    "city": "Haverfordwest",
    "country_code": "GB",
    "country": "United Kingdom",
    "latitude": 51.833099365234375,
    "longitude": -4.9611101150512695,
    "location": {
      "type": "Point",
      "coordinates": [
        -4.9611101150512695,
        51.833099365234375
      ]
    },
    "aliases": [],
    "timezone": "Europe/Paris",
    "is_active": true
  },
  {
    "name": "Cardiff International Airport",
    "iata_code": "CWL",
    "icao_code": "EGFF",
    "type": "large_airport",
    "city": "Cardiff",
    "country_code": "GB",
    "country": "United Kingdom",
    "latitude": 51.396702,
    "longitude": -3.34333,
    "location": {
      "type": "Point",
      "coordinates": [
        -3.34333,
        51.396702
      ]
    },
    "aliases": [
      "Caerdydd",
      "Cardiff International Airport",
      "Maes Awyr Caerdydd",
      "Rhoose",
      "Y Rhws"
    ],
    "timezone": "Europe/Paris",
    "is_active": true
  },
  {
    "name": "Swansea Airport",
    "iata_code": "SWS",
    "icao_code": "EGFH",
    "type": "medium_airport",
    "city": "Swansea",
    "country_code": "GB",
    "country": "United Kingdom",
    "latitude": 51.601366,
    "longitude": -4.071006,
    "location": {
      "type": "Point",
      "coordinates": [
        -4.071006,
        51.601366
      ]
    },
    "aliases": [
      "Abertawe",
      "Fairwood Common",
      "RAF Fairwood Common",
      "Maes Awyr Abertawe"
    ],
    "timezone": "Europe/Paris",
    "is_active": true
  },
  {
    "name": "Bristol Airport",
    "iata_code": "BRS",
    "icao_code": "EGGD",
    "type": "large_airport",
    "city": "Bristol",
    "country_code": "GB",
    "country": "United Kingdom",
    "latitude": 51.382326,
    "longitude": -2.716453,
    "location": {
      "type": "Point",
      "coordinates": [
        -2.716453,
        51.382326
      ]
    },
    "aliases": [
      "Lulsgate Bottom"
    ],
    "timezone": "Europe/Paris",
    "is_active": true
  },
  {
    "name": "Liverpool John Lennon Airport",
    "iata_code": "LPL",
    "icao_code": "EGGP",
    "type": "large_airport",
    "city": "Liverpool",
    "country_code": "GB",
    "country": "United Kingdom",
    "latitude": 53.334863,
    "longitude": -2.849637,
    "location": {
      "type": "Point",
      "coordinates": [
        -2.849637,
        53.334863
      ]
    },
    "aliases": [],
    "timezone": "Europe/Paris",
    "is_active": true
  },
  {
    "name": "London Luton Airport",
    "iata_code": "LTN",
    "icao_code": "EGGW",
    "type": "large_airport",
    "city": "Luton, Bedfordshire",
    "country_code": "GB",
    "country": "United Kingdom",
    "latitude": 51.874699,
    "longitude": -0.368333,
    "location": {
      "type": "Point",
      "coordinates": [
        -0.368333,
        51.874699
      ]
    },
    "aliases": [
      "LON"
    ],
    "timezone": "Europe/Paris",
    "is_active": true
  },
  {
    "name": "Land's End Airport",
    "iata_code": "LEQ",
    "icao_code": "EGHC",
    "type": "small_airport",
    "city": "Land's End, Cornwall",
    "country_code": "GB",
    "country": "United Kingdom",
    "latitude": 50.102798,
    "longitude": -5.67056,
    "location": {
      "type": "Point",
      "coordinates": [
        -5.67056,
        50.102798
      ]
    },
    "aliases": [
      "St. Just Airport"
    ],
    "timezone": "Europe/Paris",
    "is_active": true
  },
  {
    "name": "St. Mary's Airport",
    "iata_code": "ISC",
    "icao_code": "EGHE",
    "type": "small_airport",
    "city": "St. Mary's, Isles of Scilly",
    "country_code": "GB",
    "country": "United Kingdom",
    "latitude": 49.913375,
    "longitude": -6.291894,
    "location": {
      "type": "Point",
      "coordinates": [
        -6.291894,
        49.913375
      ]
    },
    "aliases": [],
    "timezone": "Europe/Paris",
    "is_active": true
  },
  {
    "name": "Bournemouth Airport",
    "iata_code": "BOH",
    "icao_code": "EGHH",
    "type": "medium_airport",
    "city": "Bournemouth",
    "country_code": "GB",
    "country": "United Kingdom",
    "latitude": 50.780483,
    "longitude": -1.839576,
    "location": {
      "type": "Point",
      "coordinates": [
        -1.839576,
        50.780483
      ]
    },
    "aliases": [
      "RAF Hurn"
    ],
    "timezone": "Europe/Paris",
    "is_active": true
  },
  {
    "name": "Southampton Airport",
    "iata_code": "SOU",
    "icao_code": "EGHI",
    "type": "medium_airport",
    "city": "Southampton",
    "country_code": "GB",
    "country": "United Kingdom",
    "latitude": 50.950298,
    "longitude": -1.3568,
    "location": {
      "type": "Point",
      "coordinates": [
        -1.3568,
        50.950298
      ]
    },
    "aliases": [
      "RAF Eastleigh",
      "RAF Southampton"
    ],
    "timezone": "Europe/Paris",
    "is_active": true
  },
  {
    "name": "Bembridge Airport",
    "iata_code": "BBP",
    "icao_code": "EGHJ",
    "type": "small_airport",
    "city": "Bembridge, Isle of Wight",
    "country_code": "GB",
    "country": "United Kingdom",
    "latitude": 50.678101,
    "longitude": -1.10944,
    "location": {
      "type": "Point",
      "coordinates": [
        -1.10944,
        50.678101
      ]
    },
    "aliases": [
      "Britten Norman"
    ],
    "timezone": "Europe/Paris",
    "is_active": true
  },
  {
    "name": "Cornwall Airport Newquay",
    "iata_code": "NQY",
    "icao_code": "EGHQ",
    "type": "medium_airport",
    "city": "Newquay",
    "country_code": "GB",
    "country": "United Kingdom",
    "latitude": 50.440601,
    "longitude": -4.99541,
    "location": {
      "type": "Point",
      "coordinates": [
        -4.99541,
        50.440601
      ]
    },
    "aliases": [
      "St Mawgan",
      "EGDG"
    ],
    "timezone": "Europe/Paris",
    "is_active": true
  },
  {
    "name": "Goodwood Aerodrome",
    "iata_code": "QUG",
    "icao_code": "EGHR",
    "type": "small_airport",
    "city": "Chichester, West Sussex",
    "country_code": "GB",
    "country": "United Kingdom",
    "latitude": 50.859832,
    "longitude": -0.760073,
    "location": {
      "type": "Point",
      "coordinates": [
        -0.760073,
        50.859832
      ]
    },
    "aliases": [
      "RAF Westhampnett"
    ],
    "timezone": "Europe/Paris",
    "is_active": true
  },
  {
    "name": "Brighton City Airport",
    "iata_code": "ESH",
    "icao_code": "EGKA",
    "type": "medium_airport",
    "city": "Brighton, East Sussex",
    "country_code": "GB",
    "country": "United Kingdom",
    "latitude": 50.835602,
    "longitude": -0.297222,
    "location": {
      "type": "Point",
      "coordinates": [
        -0.297222,
        50.835602
      ]
    },
    "aliases": [
      "Shoreham Airport"
    ],
    "timezone": "Europe/Paris",
    "is_active": true
  },
  {
    "name": "London Biggin Hill Airport",
    "iata_code": "BQH",
    "icao_code": "EGKB",
    "type": "medium_airport",
    "city": "London",
    "country_code": "GB",
    "country": "United Kingdom",
    "latitude": 51.33079910279999,
    "longitude": 0.0324999988079,
    "location": {
      "type": "Point",
      "coordinates": [
        0.0324999988079,
        51.33079910279999
      ]
    },
    "aliases": [
      "LON",
      "RAF Biggin Hill"
    ],
    "timezone": "Europe/Paris",
    "is_active": true
  },
  {
    "name": "London Gatwick Airport",
    "iata_code": "LGW",
    "icao_code": "EGKK",
    "type": "large_airport",
    "city": "London",
    "country_code": "GB",
    "country": "United Kingdom",
    "latitude": 51.148771,
    "longitude": -0.192089,
    "location": {
      "type": "Point",
      "coordinates": [
        -0.192089,
        51.148771
      ]
    },
    "aliases": [
      "LON",
      "Crawley",
      "Charlwood"
    ],
    "timezone": "Europe/Paris",
    "is_active": true
  },
  {
    "name": "London City Airport",
    "iata_code": "LCY",
    "icao_code": "EGLC",
    "type": "medium_airport",
    "city": "London",
    "country_code": "GB",
    "country": "United Kingdom",
    "latitude": 51.505299,
    "longitude": 0.055278,
    "location": {
      "type": "Point",
      "coordinates": [
        0.055278,
        51.505299
      ]
    },
    "aliases": [
      "LON"
    ],
    "timezone": "Europe/Paris",
    "is_active": true
  },
  {
    "name": "Farnborough Airport",
    "iata_code": "FAB",
    "icao_code": "EGLF",
    "type": "medium_airport",
    "city": "Farnborough, Hampshire",
    "country_code": "GB",
    "country": "United Kingdom",
    "latitude": 51.275799,
    "longitude": -0.776333,
    "location": {
      "type": "Point",
      "coordinates": [
        -0.776333,
        51.275799
      ]
    },
    "aliases": [
      "TAG London Farnborough Airport",
      "RAE Farnborough",
      "EGUF"
    ],
    "timezone": "Europe/Paris",
    "is_active": true
  },
  {
    "name": "Blackbushe Airport",
    "iata_code": "BBS",
    "icao_code": "EGLK",
    "type": "medium_airport",
    "city": "Camberley, Surrey",
    "country_code": "GB",
    "country": "United Kingdom",
    "latitude": 51.323898,
    "longitude": -0.8475,
    "location": {
      "type": "Point",
      "coordinates": [
        -0.8475,
        51.323898
      ]
    },
    "aliases": [
      "RAF Hartford Bridge"
    ],
    "timezone": "Europe/Paris",
    "is_active": true
  },
  {
    "name": "London Heathrow Airport",
    "iata_code": "LHR",
    "icao_code": "EGLL",
    "type": "large_airport",
    "city": "London",
    "country_code": "GB",
    "country": "United Kingdom",
    "latitude": 51.4706,
    "longitude": -0.461941,
    "location": {
      "type": "Point",
      "coordinates": [
        -0.461941,
        51.4706
      ]
    },
    "aliases": [
      "LON",
      "Londres"
    ],
    "timezone": "Europe/Paris",
    "is_active": true
  },
  {
    "name": "London Southend Airport",
    "iata_code": "SEN",
    "icao_code": "EGMC",
    "type": "medium_airport",
    "city": "Southend-on-Sea, Essex",
    "country_code": "GB",
    "country": "United Kingdom",
    "latitude": 51.570562,
    "longitude": 0.693627,
    "location": {
      "type": "Point",
      "coordinates": [
        0.693627,
        51.570562
      ]
    },
    "aliases": [
      "RAF Rochford"
    ],
    "timezone": "Europe/Paris",
    "is_active": true
  },
  {
    "name": "Lydd London Ashford Airport",
    "iata_code": "LYX",
    "icao_code": "EGMD",
    "type": "medium_airport",
    "city": "Romney Marsh, Kent",
    "country_code": "GB",
    "country": "United Kingdom",
    "latitude": 50.956246,
    "longitude": 0.939074,
    "location": {
      "type": "Point",
      "coordinates": [
        0.939074,
        50.956246
      ]
    },
    "aliases": [
      "London Ashford"
    ],
    "timezone": "Europe/Paris",
    "is_active": true
  },
  {
    "name": "Carlisle Lake District Airport",
    "iata_code": "CAX",
    "icao_code": "EGNC",
    "type": "medium_airport",
    "city": "Carlisle, Cumbria",
    "country_code": "GB",
    "country": "United Kingdom",
    "latitude": 54.9375,
    "longitude": -2.80917,
    "location": {
      "type": "Point",
      "coordinates": [
        -2.80917,
        54.9375
      ]
    },
    "aliases": [],
    "timezone": "Europe/Paris",
    "is_active": true
  },
  {
    "name": "Blackpool Airport",
    "iata_code": "BLK",
    "icao_code": "EGNH",
    "type": "medium_airport",
    "city": "Blackpool",
    "country_code": "GB",
    "country": "United Kingdom",
    "latitude": 53.771702,
    "longitude": -3.02861,
    "location": {
      "type": "Point",
      "coordinates": [
        -3.02861,
        53.771702
      ]
    },
    "aliases": [],
    "timezone": "Europe/Paris",
    "is_active": true
  },
  {
    "name": "Humberside Airport",
    "iata_code": "HUY",
    "icao_code": "EGNJ",
    "type": "medium_airport",
    "city": "Grimsby, Lincolnshire",
    "country_code": "GB",
    "country": "United Kingdom",
    "latitude": 53.576152,
    "longitude": -0.34954,
    "location": {
      "type": "Point",
      "coordinates": [
        -0.34954,
        53.576152
      ]
    },
    "aliases": [
      "RAF Kirmington"
    ],
    "timezone": "Europe/Paris",
    "is_active": true
  },
  {
    "name": "Barrow Walney Island Airport",
    "iata_code": "BWF",
    "icao_code": "EGNL",
    "type": "medium_airport",
    "city": "Barrow-in-Furness",
    "country_code": "GB",
    "country": "United Kingdom",
    "latitude": 54.1286111,
    "longitude": -3.2675,
    "location": {
      "type": "Point",
      "coordinates": [
        -3.2675,
        54.1286111
      ]
    },
    "aliases": [],
    "timezone": "Europe/Paris",
    "is_active": true
  },
  {
    "name": "Leeds Bradford Airport",
    "iata_code": "LBA",
    "icao_code": "EGNM",
    "type": "large_airport",
    "city": "Leeds, West Yorkshire",
    "country_code": "GB",
    "country": "United Kingdom",
    "latitude": 53.865898,
    "longitude": -1.66057,
    "location": {
      "type": "Point",
      "coordinates": [
        -1.66057,
        53.865898
      ]
    },
    "aliases": [],
    "timezone": "Europe/Paris",
    "is_active": true
  },
  {
    "name": "Warton Aerodrome",
    "iata_code": "WRT",
    "icao_code": "EGNO",
    "type": "medium_airport",
    "city": "Warton",
    "country_code": "GB",
    "country": "United Kingdom",
    "latitude": 53.745098,
    "longitude": -2.88306,
    "location": {
      "type": "Point",
      "coordinates": [
        -2.88306,
        53.745098
      ]
    },
    "aliases": [],
    "timezone": "Europe/Paris",
    "is_active": true
  },
  {
    "name": "Hawarden Airport",
    "iata_code": "CEG",
    "icao_code": "EGNR",
    "type": "medium_airport",
    "city": "Broughton",
    "country_code": "GB",
    "country": "United Kingdom",
    "latitude": 53.178101,
    "longitude": -2.97778,
    "location": {
      "type": "Point",
      "coordinates": [
        -2.97778,
        53.178101
      ]
    },
    "aliases": [
      "Chester"
    ],
    "timezone": "Europe/Paris",
    "is_active": true
  },
  {
    "name": "Isle of Man Airport",
    "iata_code": "IOM",
    "icao_code": "EGNS",
    "type": "large_airport",
    "city": "Castletown",
    "country_code": "IM",
    "country": "IM",
    "latitude": 54.083081,
    "longitude": -4.623871,
    "location": {
      "type": "Point",
      "coordinates": [
        -4.623871,
        54.083081
      ]
    },
    "aliases": [
      "Ronaldsway",
      "Douglas"
    ],
    "timezone": "Europe/Paris",
    "is_active": true
  },
  {
    "name": "Newcastle International Airport",
    "iata_code": "NCL",
    "icao_code": "EGNT",
    "type": "large_airport",
    "city": "Newcastle upon Tyne, Tyne and Wear",
    "country_code": "GB",
    "country": "United Kingdom",
    "latitude": 55.037958,
    "longitude": -1.689577,
    "location": {
      "type": "Point",
      "coordinates": [
        -1.689577,
        55.037958
      ]
    },
    "aliases": [],
    "timezone": "Europe/Paris",
    "is_active": true
  },
  {
    "name": "Teesside International Airport",
    "iata_code": "MME",
    "icao_code": "EGNV",
    "type": "medium_airport",
    "city": "Darlington, Durham",
    "country_code": "GB",
    "country": "United Kingdom",
    "latitude": 54.509201,
    "longitude": -1.42941,
    "location": {
      "type": "Point",
      "coordinates": [
        -1.42941,
        54.509201
      ]
    },
    "aliases": [
      "Durham Tees Valley Airport",
      "RAF Middleton St George",
      "Tees-Side"
    ],
    "timezone": "Europe/Paris",
    "is_active": true
  },